ID,Fuel Type Code,Station Name,City,State,ZIP,Status Code,Latitude,Longitude,Facility Type,total_pop_ev,County_ev,ST_ev,STATE_ev,STCNTY_ev,COUNTY_ev,FIPS_ev,SVI_ev,Area_km2_ev,PopDens_ev,PD_log_ev,geometry,index_tracts,total_pop_tracts,County_tracts,ST_tracts,STATE_tracts,STCNTY_tracts,COUNTY_tracts,FIPS_tracts,SVI_tracts,Area_km2_tracts,PopDens_tracts,PD_log_tracts
39016,ELEC,City of Raleigh - Municipal Building,Raleigh,NC,27601,E,35.778416,-78.64347,STREET_PARKING,2823,Wake,37,NORTH CAROLINA,37183,Wake,37183050100,0.3077,2.1451921847620037,1315.9660099699622,7.182326283261404,POINT (713000.1651086966 3961933.7778009176),88,2823,Wake,37,NORTH CAROLINA,37183,Wake,37183050100,0.3077,2.1451921847620037,1315.9660099699622,7.182326283261404
39017,ELEC,City of Raleigh - Downtown,Raleigh,NC,27601,E,35.77435,-78.642287,STREET_PARKING,2823,Wake,37,NORTH CAROLINA,37183,Wake,37183050100,0.3077,2.1451921847620037,1315.9660099699622,7.182326283261404,POINT (713117.9704010197 3961485.267754865),88,2823,Wake,37,NORTH CAROLINA,37183,Wake,37183050100,0.3077,2.1451921847620037,1315.9660099699622,7.182326283261404
40751,ELEC,City of Raleigh - Wilmington Station Deck,Raleigh,NC,27601,E,35.77937,-78.638203,PAY_GARAGE,2823,Wake,37,NORTH CAROLINA,37183,Wake,37183050100,0.3077,2.1451921847620037,1315.9660099699622,7.182326283261404,POINT (713473.7682653572 3962051.0842170687),88,2823,Wake,37,NORTH CAROLINA,37183,Wake,37183050100,0.3077,2.1451921847620037,1315.9660099699622,7.182326283261404
42396,ELEC,Raleigh Municipal Building Deck,Raleigh,NC,27601,E,35.779082,-78.641779,MUNI_GOV,2823,Wake,37,NORTH CAROLINA,37183,Wake,37183050100,0.3077,2.1451921847620037,1315.9660099699622,7.182326283261404,POINT (713151.2583992133 3962011.343591712),88,2823,Wake,37,NORTH CAROLINA,37183,Wake,37183050100,0.3077,2.1451921847620037,1315.9660099699622,7.182326283261404
42397,ELEC,City of Raleigh,Raleigh,NC,27601,T,35.777283,-78.639281,STREET_PARKING,2823,Wake,37,NORTH CAROLINA,37183,Wake,37183050100,0.3077,2.1451921847620037,1315.9660099699622,7.182326283261404,POINT (713381.8949694284 3961817.201790132),88,2823,Wake,37,NORTH CAROLINA,37183,Wake,37183050100,0.3077,2.1451921847620037,1315.9660099699622,7.182326283261404
86120,ELEC,Duke Energy,Raleigh,NC,27601,E,35.774724,-78.640402,UTILITY,2823,Wake,37,NORTH CAROLINA,37183,Wake,37183050100,0.3077,2.1451921847620037,1315.9660099699622,7.182326283261404,POINT (713287.3902102165 3961530.8630687236),88,2823,Wake,37,NORTH CAROLINA,37183,Wake,37183050100,0.3077,2.1451921847620037,1315.9660099699622,7.182326283261404
86166,ELEC,Duke Energy,Raleigh,NC,27601,E,35.774838,-78.63743,UTILITY,2823,Wake,37,NORTH CAROLINA,37183,Wake,37183050100,0.3077,2.1451921847620037,1315.9660099699622,7.182326283261404,POINT (713555.7769855451 3961549.9869344113),88,2823,Wake,37,NORTH CAROLINA,37183,Wake,37183050100,0.3077,2.1451921847620037,1315.9660099699622,7.182326283261404
99756,ELEC,DILLON STATION STATION1,Raleigh,NC,27603,E,35.777973,-78.645687,,2823,Wake,37,NORTH CAROLINA,37183,Wake,37183050100,0.3077,2.1451921847620037,1315.9660099699622,7.182326283261404,POINT (712800.9220273971 3961879.811276851),88,2823,Wake,37,NORTH CAROLINA,37183,Wake,37183050100,0.3077,2.1451921847620037,1315.9660099699622,7.182326283261404
147315,ELEC,City of Raleigh - Moore Square Deck,Raleigh,NC,27601,E,35.777463,-78.637505,PAY_GARAGE,2823,Wake,37,NORTH CAROLINA,37183,Wake,37183050100,0.3077,2.1451921847620037,1315.9660099699622,7.182326283261404,POINT (713541.9723231252 3961841.0423648153),88,2823,Wake,37,NORTH CAROLINA,37183,Wake,37183050100,0.3077,2.1451921847620037,1315.9660099699622,7.182326283261404
149634,ELEC,COREV CITY CENTER 2,Raleigh,NC,27601,E,35.774316,-78.638077,,2823,Wake,37,NORTH CAROLINA,37183,Wake,37183050100,0.3077,2.1451921847620037,1315.9660099699622,7.182326283261404,POINT (713498.6796399648 3961490.665328735),88,2823,Wake,37,NORTH CAROLINA,37183,Wake,37183050100,0.3077,2.1451921847620037,1315.9660099699622,7.182326283261404
150317,ELEC,COREV MOORE SQUARE 1,Raleigh,NC,27601,E,35.777156,-78.6377,,2823,Wake,37,NORTH CAROLINA,37183,Wake,37183050100,0.3077,2.1451921847620037,1315.9660099699622,7.182326283261404,POINT (713525.1648525113 3961806.5584102217),88,2823,Wake,37,NORTH CAROLINA,37183,Wake,37183050100,0.3077,2.1451921847620037,1315.9660099699622,7.182326283261404
165801,ELEC,Duke Energy,Raleigh,NC,27601,E,35.775181,-78.637626,UTILITY,2823,Wake,37,NORTH CAROLINA,37183,Wake,37183050100,0.3077,2.1451921847620037,1315.9660099699622,7.182326283261404,POINT (713537.1393453547 3961587.6121604284),88,2823,Wake,37,NORTH CAROLINA,37183,Wake,37183050100,0.3077,2.1451921847620037,1315.9660099699622,7.182326283261404
173315,ELEC,DILLON STATION STATION2,Raleigh,NC,27603,E,35.777964,-78.645676,,2823,Wake,37,NORTH CAROLINA,37183,Wake,37183050100,0.3077,2.1451921847620037,1315.9660099699622,7.182326283261404,POINT (712801.9404707365 3961878.836716949),88,2823,Wake,37,NORTH CAROLINA,37183,Wake,37183050100,0.3077,2.1451921847620037,1315.9660099699622,7.182326283261404
184325,ELEC,FHWA - NC Division Office,Raleigh,NC,27601,E,35.779962,-78.633881,FED_GOV,2823,Wake,37,NORTH CAROLINA,37183,Wake,37183050100,0.3077,2.1451921847620037,1315.9660099699622,7.182326283261404,POINT (713862.9013496228 3962126.1917029056),88,2823,Wake,37,NORTH CAROLINA,37183,Wake,37183050100,0.3077,2.1451921847620037,1315.9660099699622,7.182326283261404
204471,ELEC,SkyHouse - Raleigh,Raleigh,NC,27061,E,35.776708,-78.636796,,2823,Wake,37,NORTH CAROLINA,37183,Wake,37183050100,0.3077,2.1451921847620037,1315.9660099699622,7.182326283261404,POINT (713608.090152848 3961758.828490982),88,2823,Wake,37,NORTH CAROLINA,37183,Wake,37183050100,0.3077,2.1451921847620037,1315.9660099699622,7.182326283261404
213672,ELEC,DILLON WEST ST 1,Raleigh,NC,27603,E,35.778989,-78.646523,,2823,Wake,37,NORTH CAROLINA,37183,Wake,37183050100,0.3077,2.1451921847620037,1315.9660099699622,7.182326283261404,POINT (712722.6359420293 3961990.710349493),88,2823,Wake,37,NORTH CAROLINA,37183,Wake,37183050100,0.3077,2.1451921847620037,1315.9660099699622,7.182326283261404
213673,ELEC,DILLON WEST ST 2,Raleigh,NC,27603,E,35.778965,-78.646483,,2823,Wake,37,NORTH CAROLINA,37183,Wake,37183050100,0.3077,2.1451921847620037,1315.9660099699622,7.182326283261404,POINT (712726.3160322192 3961988.134673039),88,2823,Wake,37,NORTH CAROLINA,37183,Wake,37183050100,0.3077,2.1451921847620037,1315.9660099699622,7.182326283261404
40745,ELEC,Marriott Hotel - Underground Deck,Raleigh,NC,27601,E,35.772881,-78.638502,HOTEL,3555,Wake,37,NORTH CAROLINA,37183,Wake,37183050900,0.944,1.8935001725612448,1877.4754032323779,7.537683282744153,POINT (713464.0941191784 3961330.539305773),95,3555,Wake,37,NORTH CAROLINA,37183,Wake,37183050900,0.944,1.8935001725612448,1877.4754032323779,7.537683282744153
40747,ELEC,City of Raleigh - Performing Arts Center Deck,Raleigh,NC,27601,E,35.772619,-78.641492,PAY_GARAGE,3555,Wake,37,NORTH CAROLINA,37183,Wake,37183050900,0.944,1.8935001725612448,1877.4754032323779,7.537683282744153,POINT (713194.4686020049 3961294.9601775324),95,3555,Wake,37,NORTH CAROLINA,37183,Wake,37183050900,0.944,1.8935001725612448,1877.4754032323779,7.537683282744153
40854,ELEC,Neal's Garage,Durham,NC,27705,E,36.009999,-78.921405,GAS_STATION,1963,Durham,37,NORTH CAROLINA,37063,Durham,37063000402,0.1083,1.4322736927545348,1370.5481081795042,7.222966017775064,POINT (687327.970257253 3987055.7578712557),6,1963,Durham,37,NORTH CAROLINA,37063,Durham,37063000402,0.1083,1.4322736927545348,1370.5481081795042,7.222966017775064
41553,ELEC,Wilkerson Nature Preserve Park,Raleigh,NC,27614,E,35.92353,-78.599883,PARK,5449,Wake,37,NORTH CAROLINA,37183,Wake,37183053808,0.0037,20.754855720622647,262.54097225960044,5.570407154650192,POINT (716545.385451645 3978128.796605649),232,5449,Wake,37,NORTH CAROLINA,37183,Wake,37183053808,0.0037,20.754855720622647,262.54097225960044,5.570407154650192
42398,ELEC,City of Raleigh - Walnut Creek Wetland Center,Raleigh,NC,27610,E,35.760503,-78.625345,PARK,4340,Wake,37,NORTH CAROLINA,37183,Wake,37183050800,0.9584,2.2278272780746016,1948.0863901401021,7.574602831340334,POINT (714686.9029416988 3959986.071440141),94,4340,Wake,37,NORTH CAROLINA,37183,Wake,37183050800,0.9584,2.2278272780746016,1948.0863901401021,7.574602831340334
42399,ELEC,City of Raleigh - Optimist Park and Community Center,Raleigh,NC,27609,E,35.862603,-78.643641,REC_SPORTS_FACILITY,4137,Wake,37,NORTH CAROLINA,37183,Wake,37183053716,0.2789999999999999,3.2568066837120306,1270.2626842084303,7.14697899602401,POINT (712759.7782610718 3971273.203147357),216,4137,Wake,37,NORTH CAROLINA,37183,Wake,37183053716,0.2789999999999999,3.2568066837120306,1270.2626842084303,7.14697899602401
42400,ELEC,City of Raleigh - Jaycee Park and Community Center,Raleigh,NC,27607,E,35.800443,-78.663445,REC_SPORTS_FACILITY,5364,Wake,37,NORTH CAROLINA,37183,Wake,37183051400,0.1398,2.8981789603807746,1850.8173833734738,7.523382649345271,POINT (711136.0486332123 3964334.1923281695),100,5364,Wake,37,NORTH CAROLINA,37183,Wake,37183051400,0.1398,2.8981789603807746,1850.8173833734738,7.523382649345271
152415,ELEC,NC STATE DAN ALLEN DR 01,Raleigh,NC,27607,E,35.787383,-78.675611,,5364,Wake,37,NORTH CAROLINA,37183,Wake,37183051400,0.1398,2.8981789603807746,1850.8173833734738,7.523382649345271,POINT (710070.9075266409 3962859.1416429034),100,5364,Wake,37,NORTH CAROLINA,37183,Wake,37183051400,0.1398,2.8981789603807746,1850.8173833734738,7.523382649345271
42401,ELEC,City of Raleigh - Wilders Grove,Raleigh,NC,27610,E,35.788789,-78.573106,MUNI_GOV,6953,Wake,37,NORTH CAROLINA,37183,Wake,37183054106,0.6289,14.87357199992969,467.4734488818737,6.147342553280346,POINT (719332.8464394924 3963239.9205780555),249,6953,Wake,37,NORTH CAROLINA,37183,Wake,37183054106,0.6289,14.87357199992969,467.4734488818737,6.147342553280346
42402,ELEC,City of Raleigh - Transit Center,Raleigh,NC,27610,E,35.767483,-78.563464,MUNI_GOV,6953,Wake,37,NORTH CAROLINA,37183,Wake,37183054106,0.6289,14.87357199992969,467.4734488818737,6.147342553280346,POINT (720263.2226193658 3960897.8248410295),249,6953,Wake,37,NORTH CAROLINA,37183,Wake,37183054106,0.6289,14.87357199992969,467.4734488818737,6.147342553280346
42403,ELEC,City of Raleigh - Transit Center,Raleigh,NC,27610,E,35.767483,-78.563464,MUNI_GOV,6953,Wake,37,NORTH CAROLINA,37183,Wake,37183054106,0.6289,14.87357199992969,467.4734488818737,6.147342553280346,POINT (720263.2226193658 3960897.8248410295),249,6953,Wake,37,NORTH CAROLINA,37183,Wake,37183054106,0.6289,14.87357199992969,467.4734488818737,6.147342553280346
43324,ELEC,North Carolina State University - McKimmon Center and Solar House,Raleigh,NC,27606,E,35.78214,-78.6864,COLLEGE_CAMPUS,4196,Wake,37,NORTH CAROLINA,37183,Wake,37183052409,0.6904,1.1048581662423853,3797.772536062765,8.242169999126585,POINT (709109.4041389271 3962254.390830529),118,4196,Wake,37,NORTH CAROLINA,37183,Wake,37183052409,0.6904,1.1048581662423853,3797.772536062765,8.242169999126585
43880,ELEC,North Carolina State University - Joyner Visitor Center,Raleigh,NC,27606,E,35.784037,-78.684667,COLLEGE_CAMPUS,4196,Wake,37,NORTH CAROLINA,37183,Wake,37183052409,0.6904,1.1048581662423853,3797.772536062765,8.242169999126585,POINT (709261.0891067733 3962468.5452466914),118,4196,Wake,37,NORTH CAROLINA,37183,Wake,37183052409,0.6904,1.1048581662423853,3797.772536062765,8.242169999126585
44301,ELEC,Northern Wake Tech Community College,Raleigh,NC,27616,E,35.867552,-78.543695,COLLEGE_CAMPUS,10699,Wake,37,NORTH CAROLINA,37183,Wake,37183054104,0.6566,11.650689187193176,918.3147733235126,6.822540222177659,POINT (721771.9903896012 3972044.479061668),247,10699,Wake,37,NORTH CAROLINA,37183,Wake,37183054104,0.6566,11.650689187193176,918.3147733235126,6.822540222177659
44302,ELEC,Whole Foods Market,Raleigh,NC,27615,E,35.898899,-78.650239,GROCERY,3673,Wake,37,NORTH CAROLINA,37183,Wake,37183054007,0.1119999999999999,3.3801952800824764,1086.62361066618,6.990830562821331,POINT (712067.083540258 3975285.6042684373),237,3673,Wake,37,NORTH CAROLINA,37183,Wake,37183054007,0.1119999999999999,3.3801952800824764,1086.62361066618,6.990830562821331
117049,ELEC,WHOLE FOODS MKT RALEIGH NRL 1,Raleigh,NC,27615,E,35.899423,-78.649948,,3673,Wake,37,NORTH CAROLINA,37183,Wake,37183054007,0.1119999999999999,3.3801952800824764,1086.62361066618,6.990830562821331,POINT (712091.9521502798 3975344.3700040733),237,3673,Wake,37,NORTH CAROLINA,37183,Wake,37183054007,0.1119999999999999,3.3801952800824764,1086.62361066618,6.990830562821331
173720,ELEC,WHOLE FOODS MKT RALEIGH NRL 2,Raleigh,NC,27615,E,35.8994,-78.64995,,3673,Wake,37,NORTH CAROLINA,37183,Wake,37183054007,0.1119999999999999,3.3801952800824764,1086.62361066618,6.990830562821331,POINT (712091.8330219395 3975341.813990484),237,3673,Wake,37,NORTH CAROLINA,37183,Wake,37183054007,0.1119999999999999,3.3801952800824764,1086.62361066618,6.990830562821331
46406,ELEC,City of Durham - Goldenbelt,Durham,NC,27701,E,35.99017,-78.8902,MUNI_GOV,3225,Durham,37,NORTH CAROLINA,37063,Durham,37063001100,0.9944,1.3961471526695988,2309.928429702713,7.744971820223183,POINT (690188.2665826777 3984916.4358564075),13,3225,Durham,37,NORTH CAROLINA,37063,Durham,37063001100,0.9944,1.3961471526695988,2309.928429702713,7.744971820223183
153510,ELEC,MILL CHARGER LRC CORDOBA,Durham,NC,27701,E,35.990618,-78.890272,,3225,Durham,37,NORTH CAROLINA,37063,Durham,37063001100,0.9944,1.3961471526695988,2309.928429702713,7.744971820223183,POINT (690180.6992999852 3984965.9955079835),13,3225,Durham,37,NORTH CAROLINA,37063,Durham,37063001100,0.9944,1.3961471526695988,2309.928429702713,7.744971820223183
156355,ELEC,DURHAM COUNTY HHS 1,Durham,NC,27701,T,35.991094,-78.894954,,3225,Durham,37,NORTH CAROLINA,37063,Durham,37063001100,0.9944,1.3961471526695988,2309.928429702713,7.744971820223183,POINT (689757.4420950604 3985009.6739690006),13,3225,Durham,37,NORTH CAROLINA,37063,Durham,37063001100,0.9944,1.3961471526695988,2309.928429702713,7.744971820223183
175128,ELEC,LRC-GB LRC-GB,Durham,NC,27701,E,35.990683,-78.890352,,3225,Durham,37,NORTH CAROLINA,37063,Durham,37063001100,0.9944,1.3961471526695988,2309.928429702713,7.744971820223183,POINT (690173.3306121719 3984973.0503347097),13,3225,Durham,37,NORTH CAROLINA,37063,Durham,37063001100,0.9944,1.3961471526695988,2309.928429702713,7.744971820223183
46407,ELEC,Michael Jordan Nissan,Durham,NC,27707,E,35.97051750603883,-78.95684758650816,CAR_DEALER,5127,Durham,37,NORTH CAROLINA,37063,Durham,37063002015,0.8612,3.7475217447390596,1368.1041363395727,7.221181218340527,POINT (684225.1965632682 3982608.235443165),42,5127,Durham,37,NORTH CAROLINA,37063,Durham,37063002015,0.8612,3.7475217447390596,1368.1041363395727,7.221181218340527
228105,ELEC,AAA,Durham,NC,27707,E,35.9659,-78.96026,,5127,Durham,37,NORTH CAROLINA,37063,Durham,37063002015,0.8612,3.7475217447390596,1368.1041363395727,7.221181218340527,POINT (683928.1836437891 3982089.5448778807),42,5127,Durham,37,NORTH CAROLINA,37063,Durham,37063002015,0.8612,3.7475217447390596,1368.1041363395727,7.221181218340527
47040,ELEC,Crossroads Nissan - Wake Forest,Wake Forest,NC,27587,E,35.948971,-78.539171,CAR_DEALER,8745,Wake,37,NORTH CAROLINA,37183,Wake,37183054207,0.1985,8.660943237639284,1009.7052665113214,6.9174137519136,POINT (721952.8487093053 3981087.796568942),262,8745,Wake,37,NORTH CAROLINA,37183,Wake,37183054207,0.1985,8.660943237639284,1009.7052665113214,6.9174137519136
47041,ELEC,Crossroads Nissan - Wake Forest,Wake Forest,NC,27587,E,35.948971,-78.539171,CAR_DEALER,8745,Wake,37,NORTH CAROLINA,37183,Wake,37183054207,0.1985,8.660943237639284,1009.7052665113214,6.9174137519136,POINT (721952.8487093053 3981087.796568942),262,8745,Wake,37,NORTH CAROLINA,37183,Wake,37183054207,0.1985,8.660943237639284,1009.7052665113214,6.9174137519136
114715,ELEC,Candlewood Suites Wake Forest Raleigh Area - Tesla Destination,Wake Forest,NC,27587,E,35.976261,-78.542906,HOTEL,8745,Wake,37,NORTH CAROLINA,37183,Wake,37183054207,0.1985,8.660943237639284,1009.7052665113214,6.9174137519136,POINT (721539.6105363606 3984107.013882158),262,8745,Wake,37,NORTH CAROLINA,37183,Wake,37183054207,0.1985,8.660943237639284,1009.7052665113214,6.9174137519136
47126,ELEC,Durham County - Justice Center Parking Deck,Durham,NC,27701,E,35.99289,-78.9014,MUNI_GOV,1331,Durham,37,NORTH CAROLINA,37063,Durham,37063002300,0.9537,1.228982449318064,1083.009770187152,6.987499268370411,POINT (689172.0014999497 3985196.384203725),58,1331,Durham,37,NORTH CAROLINA,37063,Durham,37063002300,0.9537,1.228982449318064,1083.009770187152,6.987499268370411
63298,ELEC,BSMG EAST DECK 3,Durham,NC,27701,E,35.992578,-78.902123,,1331,Durham,37,NORTH CAROLINA,37063,Durham,37063002300,0.9537,1.228982449318064,1083.009770187152,6.987499268370411,POINT (689107.5648751771 3985160.36819373),58,1331,Durham,37,NORTH CAROLINA,37063,Durham,37063002300,0.9537,1.228982449318064,1083.009770187152,6.987499268370411
156319,ELEC,DURHAM COUNTY JUSTICE 1LEFT,Durham,NC,27701,E,35.992184,-78.90133,,1331,Durham,37,NORTH CAROLINA,37063,Durham,37063002300,0.9537,1.228982449318064,1083.009770187152,6.987499268370411,POINT (689179.9990366611 3985118.1981017725),58,1331,Durham,37,NORTH CAROLINA,37063,Durham,37063002300,0.9537,1.228982449318064,1083.009770187152,6.987499268370411
171800,ELEC,BSMG EAST DECK 2,Durham,NC,27701,T,35.992665,-78.902102,,1331,Durham,37,NORTH CAROLINA,37063,Durham,37063002300,0.9537,1.228982449318064,1083.009770187152,6.987499268370411,POINT (689109.2503513398 3985170.060528615),58,1331,Durham,37,NORTH CAROLINA,37063,Durham,37063002300,0.9537,1.228982449318064,1083.009770187152,6.987499268370411
171801,ELEC,BSMG EAST DECK 1,Durham,NC,27701,E,35.992715,-78.902072,,1331,Durham,37,NORTH CAROLINA,37063,Durham,37063002300,0.9537,1.228982449318064,1083.009770187152,6.987499268370411,POINT (689111.8355818186 3985175.665637847),58,1331,Durham,37,NORTH CAROLINA,37063,Durham,37063002300,0.9537,1.228982449318064,1083.009770187152,6.987499268370411
175667,ELEC,DURHAM COUNTY JUSTICE 1RIGHT,Durham,NC,27701,E,35.992141,-78.901309,,1331,Durham,37,NORTH CAROLINA,37063,Durham,37063002300,0.9537,1.228982449318064,1083.009770187152,6.987499268370411,POINT (689181.9950317349 3985113.468553913),58,1331,Durham,37,NORTH CAROLINA,37063,Durham,37063002300,0.9537,1.228982449318064,1083.009770187152,6.987499268370411
175668,ELEC,DURHAM COUNTY JUSTICE 3LEFT,Durham,NC,27701,E,35.992175,-78.901393,,1331,Durham,37,NORTH CAROLINA,37063,Durham,37063002300,0.9537,1.228982449318064,1083.009770187152,6.987499268370411,POINT (689174.3407491075 3985117.0773474737),58,1331,Durham,37,NORTH CAROLINA,37063,Durham,37063002300,0.9537,1.228982449318064,1083.009770187152,6.987499268370411
175669,ELEC,DURHAM COUNTY JUSTICE 3RIGHT,Durham,NC,27701,T,35.992184,-78.901329,,1331,Durham,37,NORTH CAROLINA,37063,Durham,37063002300,0.9537,1.228982449318064,1083.009770187152,6.987499268370411,POINT (689180.0891920394 3985118.2000433127),58,1331,Durham,37,NORTH CAROLINA,37063,Durham,37063002300,0.9537,1.228982449318064,1083.009770187152,6.987499268370411
184035,ELEC,Van Alen Office LLC,Durham,NC,27701,E,35.990454,-78.901642,,1331,Durham,37,NORTH CAROLINA,37063,Durham,37063002300,0.9537,1.228982449318064,1083.009770187152,6.987499268370411,POINT (689156.0029951542 3984925.6702299775),58,1331,Durham,37,NORTH CAROLINA,37063,Durham,37063002300,0.9537,1.228982449318064,1083.009770187152,6.987499268370411
192968,ELEC,BULLHOUSE APTS2 STATION 2,Durham,NC,27701,E,35.989685,-78.899124,,1331,Durham,37,NORTH CAROLINA,37063,Durham,37063002300,0.9537,1.228982449318064,1083.009770187152,6.987499268370411,POINT (689384.8583001667 3984845.250049377),58,1331,Durham,37,NORTH CAROLINA,37063,Durham,37063002300,0.9537,1.228982449318064,1083.009770187152,6.987499268370411
192969,ELEC,BULLHOUSE APTS2 STATION 1,Durham,NC,27701,T,35.989629,-78.899076,,1331,Durham,37,NORTH CAROLINA,37063,Durham,37063002300,0.9537,1.228982449318064,1083.009770187152,6.987499268370411,POINT (689389.3198220737 3984839.130828986),58,1331,Durham,37,NORTH CAROLINA,37063,Durham,37063002300,0.9537,1.228982449318064,1083.009770187152,6.987499268370411
196157,ELEC,"Springhill Suites City View, Durham, North Carolina",Durham,NC,27701,E,35.9885326,-78.9032789,,1331,Durham,37,NORTH CAROLINA,37063,Durham,37063002300,0.9537,1.228982449318064,1083.009770187152,6.987499268370411,POINT (689013.0103058734 3984709.3384010848),58,1331,Durham,37,NORTH CAROLINA,37063,Durham,37063002300,0.9537,1.228982449318064,1083.009770187152,6.987499268370411
47192,ELEC,Leith Nissan,Cary,NC,27511,E,35.7390019,-78.8138134,CAR_DEALER,2758,Wake,37,NORTH CAROLINA,37183,Wake,37183053419,0.0079,4.911503655206306,561.53882672498,6.33068092000689,POINT (697698.3666559363 3957204.2342571914),176,2758,Wake,37,NORTH CAROLINA,37183,Wake,37183053419,0.0079,4.911503655206306,561.53882672498,6.33068092000689
47193,ELEC,Leith Nissan,Cary,NC,27511,E,35.7390019,-78.8138134,CAR_DEALER,2758,Wake,37,NORTH CAROLINA,37183,Wake,37183053419,0.0079,4.911503655206306,561.53882672498,6.33068092000689,POINT (697698.3666559363 3957204.2342571914),176,2758,Wake,37,NORTH CAROLINA,37183,Wake,37183053419,0.0079,4.911503655206306,561.53882672498,6.33068092000689
100336,ELEC,JLR CARY LEITH 1 - FRONT,Cary,NC,27511,E,35.73965,-78.814925,,2758,Wake,37,NORTH CAROLINA,37183,Wake,37183053419,0.0079,4.911503655206306,561.53882672498,6.33068092000689,POINT (697596.2259426496 3957273.8904376947),176,2758,Wake,37,NORTH CAROLINA,37183,Wake,37183053419,0.0079,4.911503655206306,561.53882672498,6.33068092000689
182692,ELEC,JLR CARY LEITH 3 - BAY1,Cary,NC,27511,E,35.739528,-78.815519,,2758,Wake,37,NORTH CAROLINA,37183,Wake,37183053419,0.0079,4.911503655206306,561.53882672498,6.33068092000689,POINT (697542.8037630742 3957259.159130239),176,2758,Wake,37,NORTH CAROLINA,37183,Wake,37183053419,0.0079,4.911503655206306,561.53882672498,6.33068092000689
199490,ELEC,MB CARY PARKING LOT 1,Apex,NC,27502,E,35.73733,-78.81497,,2758,Wake,37,NORTH CAROLINA,37183,Wake,37183053419,0.0079,4.911503655206306,561.53882672498,6.33068092000689,POINT (697597.891624158 3957016.429096756),176,2758,Wake,37,NORTH CAROLINA,37183,Wake,37183053419,0.0079,4.911503655206306,561.53882672498,6.33068092000689
200916,ELEC,CARY TMSA CARY 01,Cary,NC,27511,E,35.733006,-78.8058,,2758,Wake,37,NORTH CAROLINA,37183,Wake,37183053419,0.0079,4.911503655206306,561.53882672498,6.33068092000689,POINT (698438.0220935572 3956555.264672782),176,2758,Wake,37,NORTH CAROLINA,37183,Wake,37183053419,0.0079,4.911503655206306,561.53882672498,6.33068092000689
213787,ELEC,KNIER PROPERTIE MACGREGOR MPG,Cary,NC,27511,E,35.739132,-78.80107,,2758,Wake,37,NORTH CAROLINA,37183,Wake,37183053419,0.0079,4.911503655206306,561.53882672498,6.33068092000689,POINT (698850.6181403125 3957244.441769445),176,2758,Wake,37,NORTH CAROLINA,37183,Wake,37183053419,0.0079,4.911503655206306,561.53882672498,6.33068092000689
220521,ELEC,Cary NC 121 Edinburgh S Dr,Cary,NC,27511,E,35.739228,-78.802645,,2758,Wake,37,NORTH CAROLINA,37183,Wake,37183053419,0.0079,4.911503655206306,561.53882672498,6.33068092000689,POINT (698707.928846729 3957251.897899902),176,2758,Wake,37,NORTH CAROLINA,37183,Wake,37183053419,0.0079,4.911503655206306,561.53882672498,6.33068092000689
47332,ELEC,Orange County - Robert and Pearl Seymour Center,Chapel Hill,NC,27516,E,35.950629,-79.063354,MUNI_GOV,3186,Orange,37,NORTH CAROLINA,37135,Orange,37135011800,0.1185,5.277309473151287,603.7167265268442,6.403105092105395,POINT (674664.4530805023 3980205.921878024),82,3186,Orange,37,NORTH CAROLINA,37135,Orange,37135011800,0.1185,5.277309473151287,603.7167265268442,6.403105092105395
47333,ELEC,Orange County - Skills Development Center,Chapel Hill,NC,27516,E,35.909907,-79.06344,MUNI_GOV,4190,Orange,37,NORTH CAROLINA,37135,Orange,37135011700,0.2721,2.475943783571508,1692.2839798713014,7.433834362886517,POINT (674746.3264588285 3975688.3452261933),81,4190,Orange,37,NORTH CAROLINA,37135,Orange,37135011700,0.2721,2.475943783571508,1692.2839798713014,7.433834362886517
65520,ELEC,Mills Rentals Office,Chapel Hill,NC,27514,E,35.897388,-79.052478,STREET_PARKING,4190,Orange,37,NORTH CAROLINA,37135,Orange,37135011700,0.2721,2.475943783571508,1692.2839798713014,7.433834362886517,POINT (675763.2998324352 3974319.2491934393),81,4190,Orange,37,NORTH CAROLINA,37135,Orange,37135011700,0.2721,2.475943783571508,1692.2839798713014,7.433834362886517
114666,ELEC,"The Franklin Hotel Chapel Hill, Curio Collection - Tesla Destination",Chapel Hill,NC,27516,E,35.911216,-79.060162,HOTEL,4190,Orange,37,NORTH CAROLINA,37135,Orange,37135011700,0.2721,2.475943783571508,1692.2839798713014,7.433834362886517,POINT (675039.2690768244 3975839.428103783),81,4190,Orange,37,NORTH CAROLINA,37135,Orange,37135011700,0.2721,2.475943783571508,1692.2839798713014,7.433834362886517
197541,ELEC,Carolina Square Parking Deck,Chapel Hill,NC,27516,E,35.9121249060889,-79.0570611452666,PARKING_GARAGE,4190,Orange,37,NORTH CAROLINA,37135,Orange,37135011700,0.2721,2.475943783571508,1692.2839798713014,7.433834362886517,POINT (675317.0989771052 3975945.8193793665),81,4190,Orange,37,NORTH CAROLINA,37135,Orange,37135011700,0.2721,2.475943783571508,1692.2839798713014,7.433834362886517
47334,ELEC,Orange County - Durham Technical Community College Park & Ride Lot,Hillsborough,NC,27278,E,36.04236,-79.09323,PARKING_LOT,4724,Orange,37,NORTH CAROLINA,37135,Orange,37135010902,0.6418,33.540226430950625,140.8457992889617,4.947665669873105,POINT (671770.5351823636 3990328.898164757),68,4724,Orange,37,NORTH CAROLINA,37135,Orange,37135010902,0.6418,33.540226430950625,140.8457992889617,4.947665669873105
82601,ELEC,PIEDMONT EMC PEMC,Hillsborough,NC,27278,E,36.045546,-79.080706,,4724,Orange,37,NORTH CAROLINA,37135,Orange,37135010902,0.6418,33.540226430950625,140.8457992889617,4.947665669873105,POINT (672891.9156678626 3990704.5113841933),68,4724,Orange,37,NORTH CAROLINA,37135,Orange,37135010902,0.6418,33.540226430950625,140.8457992889617,4.947665669873105
168151,ELEC,"SHEETZ 647- Hillsborough, NC",Hillsborough,NC,27278,E,36.05707,-79.08008,,4724,Orange,37,NORTH CAROLINA,37135,Orange,37135010902,0.6418,33.540226430950625,140.8457992889617,4.947665669873105,POINT (672923.0926712833 3991984.037119883),68,4724,Orange,37,NORTH CAROLINA,37135,Orange,37135010902,0.6418,33.540226430950625,140.8457992889617,4.947665669873105
225879,ELEC,Candance at Cates Creek,Hillsborough,NC,27278,E,36.0466822,-79.0938074,,4724,Orange,37,NORTH CAROLINA,37135,Orange,37135010902,0.6418,33.540226430950625,140.8457992889617,4.947665669873105,POINT (671709.1245228187 3990807.360355148),68,4724,Orange,37,NORTH CAROLINA,37135,Orange,37135010902,0.6418,33.540226430950625,140.8457992889617,4.947665669873105
47335,ELEC,Orange County - West Campus Office Building,Hillsborough,NC,27278,E,36.073889,-79.100586,MUNI_GOV,7182,Orange,37,NORTH CAROLINA,37135,Orange,37135011000,0.2901,32.52263588029608,220.83080923804312,5.397396839261481,POINT (671039.5231133313 3993813.5975357792),69,7182,Orange,37,NORTH CAROLINA,37135,Orange,37135011000,0.2901,32.52263588029608,220.83080923804312,5.397396839261481
50393,ELEC,Orange County - West Campus Office Building,Hillsborough,NC,27278,E,36.073889,-79.100586,MUNI_GOV,7182,Orange,37,NORTH CAROLINA,37135,Orange,37135011000,0.2901,32.52263588029608,220.83080923804312,5.397396839261481,POINT (671039.5231133313 3993813.5975357792),69,7182,Orange,37,NORTH CAROLINA,37135,Orange,37135011000,0.2901,32.52263588029608,220.83080923804312,5.397396839261481
220373,ELEC,Orange County North Campus - Detention Center,Hillsborough,NC,27278,E,36.083745,-79.124229,PARKING_LOT,7182,Orange,37,NORTH CAROLINA,37135,Orange,37135011000,0.2901,32.52263588029608,220.83080923804312,5.397396839261481,POINT (668889.1806984236 3994865.647487713),69,7182,Orange,37,NORTH CAROLINA,37135,Orange,37135011000,0.2901,32.52263588029608,220.83080923804312,5.397396839261481
220374,ELEC,Orange County North Campus - Bonnie B. Davis Center,Hillsborough,NC,27278,E,36.08469,-79.12306,MUNI_GOV,7182,Orange,37,NORTH CAROLINA,37135,Orange,37135011000,0.2901,32.52263588029608,220.83080923804312,5.397396839261481,POINT (668992.4224312662 3994972.511719637),69,7182,Orange,37,NORTH CAROLINA,37135,Orange,37135011000,0.2901,32.52263588029608,220.83080923804312,5.397396839261481
47718,ELEC,Umstead Hotel and Spa,Cary,NC,27513,E,35.82973,-78.7646,HOTEL,3079,Wake,37,NORTH CAROLINA,37183,Wake,37183053521,0.068,11.03392310023293,279.04852807384543,5.631385702444847,POINT (701919.7444292062 3967369.75454025),194,3079,Wake,37,NORTH CAROLINA,37183,Wake,37183053521,0.068,11.03392310023293,279.04852807384543,5.631385702444847
50688,ELEC,SAS Institute Inc - T,Cary,NC,27513,E,35.823796,-78.752235,OFFICE_BLDG,3079,Wake,37,NORTH CAROLINA,37183,Wake,37183053521,0.068,11.03392310023293,279.04852807384543,5.631385702444847,POINT (703051.9591571584 3966737.0419574794),194,3079,Wake,37,NORTH CAROLINA,37183,Wake,37183053521,0.068,11.03392310023293,279.04852807384543,5.631385702444847
50689,ELEC,SAS Institute Inc - C,Cary,NC,27513,E,35.817516,-78.751668,OFFICE_BLDG,3079,Wake,37,NORTH CAROLINA,37183,Wake,37183053521,0.068,11.03392310023293,279.04852807384543,5.631385702444847,POINT (703119.1957976004 3966041.525710758),194,3079,Wake,37,NORTH CAROLINA,37183,Wake,37183053521,0.068,11.03392310023293,279.04852807384543,5.631385702444847
60264,ELEC,Ambiente Modern Furniture,Raleigh,NC,27607,E,35.793985,-78.750329,SHOPPING_CENTER,3079,Wake,37,NORTH CAROLINA,37183,Wake,37183053521,0.068,11.03392310023293,279.04852807384543,5.631385702444847,POINT (703300.1805027355 3963433.8190576024),194,3079,Wake,37,NORTH CAROLINA,37183,Wake,37183053521,0.068,11.03392310023293,279.04852807384543,5.631385702444847
63074,ELEC,SAS Institute Inc - G,Cary,NC,27513,E,35.823401,-78.76124,OFFICE_BLDG,3079,Wake,37,NORTH CAROLINA,37183,Wake,37183053521,0.068,11.03392310023293,279.04852807384543,5.631385702444847,POINT (702239.3630278711 3966674.5676047085),194,3079,Wake,37,NORTH CAROLINA,37183,Wake,37183053521,0.068,11.03392310023293,279.04852807384543,5.631385702444847
63075,ELEC,SAS Institute Inc - S,Cary,NC,27607,E,35.822242,-78.757042,OFFICE_BLDG,3079,Wake,37,NORTH CAROLINA,37183,Wake,37183053521,0.068,11.03392310023293,279.04852807384543,5.631385702444847,POINT (702621.6001234883 3966554.6768193976),194,3079,Wake,37,NORTH CAROLINA,37183,Wake,37183053521,0.068,11.03392310023293,279.04852807384543,5.631385702444847
63076,ELEC,SAS Institute Inc - R,Cary,NC,27513,E,35.824815,-78.757352,OFFICE_BLDG,3079,Wake,37,NORTH CAROLINA,37183,Wake,37183053521,0.068,11.03392310023293,279.04852807384543,5.631385702444847,POINT (702587.0485061958 3966839.4791248385),194,3079,Wake,37,NORTH CAROLINA,37183,Wake,37183053521,0.068,11.03392310023293,279.04852807384543,5.631385702444847
68003,ELEC,SAS Institute Inc - U,Cary,NC,27513,E,35.820801,-78.753109,OFFICE_BLDG,3079,Wake,37,NORTH CAROLINA,37183,Wake,37183053521,0.068,11.03392310023293,279.04852807384543,5.631385702444847,POINT (702980.6234205435 3966402.967644045),194,3079,Wake,37,NORTH CAROLINA,37183,Wake,37183053521,0.068,11.03392310023293,279.04852807384543,5.631385702444847
68004,ELEC,SAS Institute Inc - Q,Cary,NC,27513,E,35.82111,-78.749317,OFFICE_BLDG,3079,Wake,37,NORTH CAROLINA,37183,Wake,37183053521,0.068,11.03392310023293,279.04852807384543,5.631385702444847,POINT (703322.4541844731 3966445.1218180377),194,3079,Wake,37,NORTH CAROLINA,37183,Wake,37183053521,0.068,11.03392310023293,279.04852807384543,5.631385702444847
68005,ELEC,SAS Institute Inc - H,Cary,NC,27513,E,35.827144,-78.76066,OFFICE_BLDG,3079,Wake,37,NORTH CAROLINA,37183,Wake,37183053521,0.068,11.03392310023293,279.04852807384543,5.631385702444847,POINT (702282.2619341356 3967091.0087770834),194,3079,Wake,37,NORTH CAROLINA,37183,Wake,37183053521,0.068,11.03392310023293,279.04852807384543,5.631385702444847
68006,ELEC,SAS Institute Inc - LW,Cary,NC,27513,E,35.828483,-78.767465,OFFICE_BLDG,3079,Wake,37,NORTH CAROLINA,37183,Wake,37183053521,0.068,11.03392310023293,279.04852807384543,5.631385702444847,POINT (701664.0694486784 3967225.5040441225),194,3079,Wake,37,NORTH CAROLINA,37183,Wake,37183053521,0.068,11.03392310023293,279.04852807384543,5.631385702444847
114660,ELEC,The Umstead Hotel and Spa - Tesla Destination,Cary,NC,27513,E,35.829902,-78.764586,HOTEL,3079,Wake,37,NORTH CAROLINA,37183,Wake,37183053521,0.068,11.03392310023293,279.04852807384543,5.631385702444847,POINT (701920.5732094308 3967388.864821239),194,3079,Wake,37,NORTH CAROLINA,37183,Wake,37183053521,0.068,11.03392310023293,279.04852807384543,5.631385702444847
146978,ELEC,SAS Institute Inc - A,Cary,NC,27513,E,35.81617,-78.747624,OFFICE_BLDG,3079,Wake,37,NORTH CAROLINA,37183,Wake,37183053521,0.068,11.03392310023293,279.04852807384543,5.631385702444847,POINT (703488.036218541 3965900.6055504186),194,3079,Wake,37,NORTH CAROLINA,37183,Wake,37183053521,0.068,11.03392310023293,279.04852807384543,5.631385702444847
197137,ELEC,CARY ACADEMY STATION 1,Cary,NC,27513,E,35.819369,-78.769618,,3079,Wake,37,NORTH CAROLINA,37183,Wake,37183053521,0.068,11.03392310023293,279.04852807384543,5.631385702444847,POINT (701492.6070935467 3966209.97807557),194,3079,Wake,37,NORTH CAROLINA,37183,Wake,37183053521,0.068,11.03392310023293,279.04852807384543,5.631385702444847
197138,ELEC,CARY ACADEMY STATION 2,Cary,NC,27513,E,35.819353,-78.769492,,3079,Wake,37,NORTH CAROLINA,37183,Wake,37183053521,0.068,11.03392310023293,279.04852807384543,5.631385702444847,POINT (701504.0322145512 3966208.462568547),194,3079,Wake,37,NORTH CAROLINA,37183,Wake,37183053521,0.068,11.03392310023293,279.04852807384543,5.631385702444847
230794,ELEC,SAS Building T,Cary,NC,27513,E,35.823008,-78.751816,,3079,Wake,37,NORTH CAROLINA,37183,Wake,37183053521,0.068,11.03392310023293,279.04852807384543,5.631385702444847,POINT (703091.8243980038 3966650.492229263),194,3079,Wake,37,NORTH CAROLINA,37183,Wake,37183053521,0.068,11.03392310023293,279.04852807384543,5.631385702444847
49873,ELEC,Town of Cary - Town Hall,Cary,NC,27513,E,35.790388,-78.778715,MUNI_GOV,5230,Wake,37,NORTH CAROLINA,37183,Wake,37183053520,0.3424,3.456446507321857,1513.114694215921,7.321925516742021,POINT (700743.61079075 3962976.2009071293),193,5230,Wake,37,NORTH CAROLINA,37183,Wake,37183053520,0.3424,3.456446507321857,1513.114694215921,7.321925516742021
167160,ELEC,TOWN OF CARY TOWN HALL-PWH,Cary,NC,27513,E,35.789215,-78.77882,,5230,Wake,37,NORTH CAROLINA,37183,Wake,37183053520,0.3424,3.456446507321857,1513.114694215921,7.321925516742021,POINT (700737.0718470758 3962845.8561869543),193,5230,Wake,37,NORTH CAROLINA,37183,Wake,37183053520,0.3424,3.456446507321857,1513.114694215921,7.321925516742021
49881,ELEC,Wake Technical Community College,Raleigh,NC,27603,E,35.651689,-78.706233,COLLEGE_CAMPUS,5523,Wake,37,NORTH CAROLINA,37183,Wake,37183053110,0.4529999999999999,29.127921720308336,189.6118800727653,5.244979246469584,POINT (707654.9434773031 3947740.2568099094),155,5523,Wake,37,NORTH CAROLINA,37183,Wake,37183053110,0.4529999999999999,29.127921720308336,189.6118800727653,5.244979246469584
102678,ELEC,WTCC SWC SWC STATION 3&4,Raleigh,NC,27603,E,35.652141,-78.706033,,5523,Wake,37,NORTH CAROLINA,37183,Wake,37183053110,0.4529999999999999,29.127921720308336,189.6118800727653,5.244979246469584,POINT (707671.8818378544 3947790.8230994195),155,5523,Wake,37,NORTH CAROLINA,37183,Wake,37183053110,0.4529999999999999,29.127921720308336,189.6118800727653,5.244979246469584
229283,ELEC,SWC STATION 3&4 RTP 7,Morrisville,NC,27560,E,35.650384,-78.699845,,5523,Wake,37,NORTH CAROLINA,37183,Wake,37183053110,0.4529999999999999,29.127921720308336,189.6118800727653,5.244979246469584,POINT (708236.7392993617 3947609.0065590646),155,5523,Wake,37,NORTH CAROLINA,37183,Wake,37183053110,0.4529999999999999,29.127921720308336,189.6118800727653,5.244979246469584
51670,ELEC,Town of Cary - Cary Arts Center,Cary,NC,27511,E,35.782702,-78.781262,OTHER_ENTERTAINMENT,3603,Wake,37,NORTH CAROLINA,37183,Wake,37183053507,0.6756,2.8819721520785078,1250.1855708083367,7.131047275924419,POINT (700532.7127811408 3962118.3184825988),185,3603,Wake,37,NORTH CAROLINA,37183,Wake,37183053507,0.6756,2.8819721520785078,1250.1855708083367,7.131047275924419
52057,ELEC,West Regional Library,Cary,NC,27519,E,35.815061,-78.864062,LIBRARY,3728,Wake,37,NORTH CAROLINA,37183,Wake,37183053603,0.1226,4.714964569500578,790.6740220520638,6.672885774170229,POINT (692969.6881987513 3965541.6863958947),201,3728,Wake,37,NORTH CAROLINA,37183,Wake,37183053603,0.1226,4.714964569500578,790.6740220520638,6.672885774170229
99819,ELEC,WEINSTEIN CARPENTER1,Cary,NC,27519,E,35.82114,-78.859447,,3728,Wake,37,NORTH CAROLINA,37183,Wake,37183053603,0.1226,4.714964569500578,790.6740220520638,6.672885774170229,POINT (693371.9372788459 3966225.176214123),201,3728,Wake,37,NORTH CAROLINA,37183,Wake,37183053603,0.1226,4.714964569500578,790.6740220520638,6.672885774170229
52058,ELEC,East Regional Library,Knightdale,NC,27545,E,35.802473,-78.487298,LIBRARY,2285,Wake,37,NORTH CAROLINA,37183,Wake,37183054113,0.5562,22.336391897017677,102.29942286717713,4.627904031369596,POINT (727050.4154963907 3964953.741392041),255,2285,Wake,37,NORTH CAROLINA,37183,Wake,37183054113,0.5562,22.336391897017677,102.29942286717713,4.627904031369596
53884,ELEC,CrossRoads Ford,Cary,NC,27511,T,35.753616,-78.739497,CAR_DEALER,5465,Wake,37,NORTH CAROLINA,37183,Wake,37183053003,0.1559,6.254010403628867,873.8392882795579,6.772896478060405,POINT (704382.5616669608 3958977.9125556434),143,5465,Wake,37,NORTH CAROLINA,37183,Wake,37183053003,0.1559,6.254010403628867,873.8392882795579,6.772896478060405
166988,ELEC,"Target 0961 - Cary, NC",Cary,NC,27518,E,35.7586,-78.73923,,5465,Wake,37,NORTH CAROLINA,37183,Wake,37183053003,0.1559,6.254010403628867,873.8392882795579,6.772896478060405,POINT (704393.9513593487 3959531.3830480278),143,5465,Wake,37,NORTH CAROLINA,37183,Wake,37183053003,0.1559,6.254010403628867,873.8392882795579,6.772896478060405
168857,ELEC,Homewood Suites by Hilton Raleigh Cary I-40 - Tesla Destination,Cary,NC,27518,E,35.758438,-78.732544,,5465,Wake,37,NORTH CAROLINA,37183,Wake,37183053003,0.1559,6.254010403628867,873.8392882795579,6.772896478060405,POINT (704998.9424817889 3959527.3793874364),143,5465,Wake,37,NORTH CAROLINA,37183,Wake,37183053003,0.1559,6.254010403628867,873.8392882795579,6.772896478060405
58187,ELEC,UNC B-SCHOOL DECK,Chapel Hill,NC,27514,E,35.900785,-79.046279,,5786,Orange,37,NORTH CAROLINA,37135,Orange,37135011602,0.5248,1.555668599259684,3719.30114341413,8.221291064944793,POINT (676315.2884616483 3974707.262239676),80,5786,Orange,37,NORTH CAROLINA,37135,Orange,37135011602,0.5248,1.555668599259684,3719.30114341413,8.221291064944793
63303,ELEC,UNC RAMSHEAD 1,Chapel Hill,NC,27514,E,35.906068,-79.045679,,5786,Orange,37,NORTH CAROLINA,37135,Orange,37135011602,0.5248,1.555668599259684,3719.30114341413,8.221291064944793,POINT (676357.7154030944 3975294.405468746),80,5786,Orange,37,NORTH CAROLINA,37135,Orange,37135011602,0.5248,1.555668599259684,3719.30114341413,8.221291064944793
63335,ELEC,UNC CARDINAL DECK 1,Chapel Hill,NC,27514,E,35.90333,-79.052449,,5786,Orange,37,NORTH CAROLINA,37135,Orange,37135011602,0.5248,1.555668599259684,3719.30114341413,8.221291064944793,POINT (675752.7740601405 3974978.4650203497),80,5786,Orange,37,NORTH CAROLINA,37135,Orange,37135011602,0.5248,1.555668599259684,3719.30114341413,8.221291064944793
73277,ELEC,UNC CRAIGE DECK,Chapel Hill,NC,27514,E,35.902571,-79.047712,,5786,Orange,37,NORTH CAROLINA,37135,Orange,37135011602,0.5248,1.555668599259684,3719.30114341413,8.221291064944793,POINT (676181.9900660092 3974902.8025381644),80,5786,Orange,37,NORTH CAROLINA,37135,Orange,37135011602,0.5248,1.555668599259684,3719.30114341413,8.221291064944793
205060,ELEC,UNC BUSINESS SCHOOL,Chapel Hill,NC,27514,E,35.90057,-79.046094,,5786,Orange,37,NORTH CAROLINA,37135,Orange,37135011602,0.5248,1.555668599259684,3719.30114341413,8.221291064944793,POINT (676332.4631133638 3974683.7456378075),80,5786,Orange,37,NORTH CAROLINA,37135,Orange,37135011602,0.5248,1.555668599259684,3719.30114341413,8.221291064944793
61410,ELEC,Fred Anderson Nissan,Raleigh,NC,27617,E,35.896757,-78.760671,CAR_DEALER,5875,Wake,37,NORTH CAROLINA,37183,Wake,37183053724,0.0773,5.9410744349872155,988.8783694413756,6.896571340683879,POINT (702104.3520941907 3974813.772391204),224,5875,Wake,37,NORTH CAROLINA,37183,Wake,37183053724,0.0773,5.9410744349872155,988.8783694413756,6.896571340683879
61411,ELEC,Fred Anderson Nissan,Raleigh,NC,27617,E,35.896757,-78.760671,CAR_DEALER,5875,Wake,37,NORTH CAROLINA,37183,Wake,37183053724,0.0773,5.9410744349872155,988.8783694413756,6.896571340683879,POINT (702104.3520941907 3974813.772391204),224,5875,Wake,37,NORTH CAROLINA,37183,Wake,37183053724,0.0773,5.9410744349872155,988.8783694413756,6.896571340683879
61524,ELEC,Imperial Center,Durham,NC,27703,E,35.877097,-78.842616,PARKING_GARAGE,6001,Durham,37,NORTH CAROLINA,37063,Durham,37063002028,0.1425,21.943450862495215,273.47567333890254,5.611212672161714,POINT (694755.6766803731 3972466.2591171763),55,6001,Durham,37,NORTH CAROLINA,37063,Durham,37063002028,0.1425,21.943450862495215,273.47567333890254,5.611212672161714
96925,ELEC,PowerSecure,Durham,NC,27703,E,35.921114,-78.841953,OFFICE_BLDG,6001,Durham,37,NORTH CAROLINA,37063,Durham,37063002028,0.1425,21.943450862495215,273.47567333890254,5.611212672161714,POINT (694707.6404755613 3977350.718345381),55,6001,Durham,37,NORTH CAROLINA,37063,Durham,37063002028,0.1425,21.943450862495215,273.47567333890254,5.611212672161714
184630,ELEC,EPA Research Triangle Park,Durham,NC,27713,E,35.921852,-78.840123,FED_GOV,6001,Durham,37,NORTH CAROLINA,37063,Durham,37063002028,0.1425,21.943450862495215,273.47567333890254,5.611212672161714,POINT (694870.9634261227 3977436.242802567),55,6001,Durham,37,NORTH CAROLINA,37063,Durham,37063002028,0.1425,21.943450862495215,273.47567333890254,5.611212672161714
216581,ELEC,DAVIS EV - CHARGING 1,Morrisville,NC,27560,E,35.878382,-78.8549,,6001,Durham,37,NORTH CAROLINA,37063,Durham,37063002028,0.1425,21.943450862495215,273.47567333890254,5.611212672161714,POINT (693643.457538656 3972584.3971247803),55,6001,Durham,37,NORTH CAROLINA,37063,Durham,37063002028,0.1425,21.943450862495215,273.47567333890254,5.611212672161714
216582,ELEC,DAVIS EV - CHARGING 2,Morrisville,NC,27560,E,35.878396,-78.854831,,6001,Durham,37,NORTH CAROLINA,37063,Durham,37063002028,0.1425,21.943450862495215,273.47567333890254,5.611212672161714,POINT (693649.6531619369 3972586.0869993255),55,6001,Durham,37,NORTH CAROLINA,37063,Durham,37063002028,0.1425,21.943450862495215,273.47567333890254,5.611212672161714
62316,ELEC,North Carolina Museum of Life and Science,Durham,NC,27704,T,36.030987,-78.898207,MUSEUM,4535,Durham,37,NORTH CAROLINA,37063,Durham,37063000102,0.8547,4.015552998231996,1129.3587712568383,7.029405291575811,POINT (689368.6685810757 3989428.9957405077),1,4535,Durham,37,NORTH CAROLINA,37063,Durham,37063000102,0.8547,4.015552998231996,1129.3587712568383,7.029405291575811
63239,ELEC,BSMG NORTH DECK 1,Durham,NC,27701,E,35.994829,-78.905062,,2830,Durham,37,NORTH CAROLINA,37063,Durham,37063000700,0.2989,3.405604091527216,830.9832628639194,6.722609653694637,POINT (688837.231180817 3985404.388737799),9,2830,Durham,37,NORTH CAROLINA,37063,Durham,37063000700,0.2989,3.405604091527216,830.9832628639194,6.722609653694637
63299,ELEC,BSMG SOUTH DECK 1,Durham,NC,27701,E,35.991785,-78.906252,,2830,Durham,37,NORTH CAROLINA,37063,Durham,37063000700,0.2989,3.405604091527216,830.9832628639194,6.722609653694637,POINT (688737.2054901945 3985064.3889733832),9,2830,Durham,37,NORTH CAROLINA,37063,Durham,37063000700,0.2989,3.405604091527216,830.9832628639194,6.722609653694637
66697,ELEC,BSMG SOUTH DECK 2,Durham,NC,27701,E,35.992658,-78.905999,,2830,Durham,37,NORTH CAROLINA,37063,Durham,37063000700,0.2989,3.405604091527216,830.9832628639194,6.722609653694637,POINT (688757.9338570561 3985161.7275650105),9,2830,Durham,37,NORTH CAROLINA,37063,Durham,37063000700,0.2989,3.405604091527216,830.9832628639194,6.722609653694637
96976,ELEC,BSMG ATC EVSE GW,Durham,NC,27701,T,35.993329,-78.905625,,2830,Durham,37,NORTH CAROLINA,37063,Durham,37063000700,0.2989,3.405604091527216,830.9832628639194,6.722609653694637,POINT (688790.0519061773 3985236.8912826595),9,2830,Durham,37,NORTH CAROLINA,37063,Durham,37063000700,0.2989,3.405604091527216,830.9832628639194,6.722609653694637
158513,ELEC,BROADSTONE DRM LEVEL 2 B,Durham,NC,27701,T,35.993759,-78.908234,,2830,Durham,37,NORTH CAROLINA,37063,Durham,37063000700,0.2989,3.405604091527216,830.9832628639194,6.722609653694637,POINT (688553.8162311601 3985279.5424206904),9,2830,Durham,37,NORTH CAROLINA,37063,Durham,37063000700,0.2989,3.405604091527216,830.9832628639194,6.722609653694637
171531,ELEC,BSMG NORTH DECK 2,Durham,NC,27701,E,35.994797,-78.90499,,2830,Durham,37,NORTH CAROLINA,37063,Durham,37063000700,0.2989,3.405604091527216,830.9832628639194,6.722609653694637,POINT (688843.7984686075 3985400.978281708),9,2830,Durham,37,NORTH CAROLINA,37063,Durham,37063000700,0.2989,3.405604091527216,830.9832628639194,6.722609653694637
175791,ELEC,BROADSTONE DRM LEVEL 2 ADA,Durham,NC,27701,E,35.993779,-78.908236,,2830,Durham,37,NORTH CAROLINA,37063,Durham,37063000700,0.2989,3.405604091527216,830.9832628639194,6.722609653694637,POINT (688553.5882979244 3985281.7573014665),9,2830,Durham,37,NORTH CAROLINA,37063,Durham,37063000700,0.2989,3.405604091527216,830.9832628639194,6.722609653694637
175792,ELEC,BROADSTONE DRM GUEST 1 ADA,Durham,NC,27701,E,35.993798,-78.908226,,2830,Durham,37,NORTH CAROLINA,37063,Durham,37063000700,0.2989,3.405604091527216,830.9832628639194,6.722609653694637,POINT (688554.4445870457 3985283.884466872),9,2830,Durham,37,NORTH CAROLINA,37063,Durham,37063000700,0.2989,3.405604091527216,830.9832628639194,6.722609653694637
63766,ELEC,RTP EMC - RTP,Durham,NC,27703,E,35.919842,-78.87791,,4,Durham,,,,,,,21.335874231065,0.18747767055057002,-1.6740955310604557,POINT (691466.0534113788 3977138.4732943783),59,4,Durham,,,,,,,21.335874231065,0.18747767055057002,-1.6740955310604557
98678,ELEC,Social Security Administration,Research Triangle Park,NC,27709,E,35.877576,-78.88564,FED_GOV,4,Durham,,,,,,,21.335874231065,0.18747767055057002,-1.6740955310604557,POINT (690870.0161945362 3972434.4940709905),59,4,Durham,,,,,,,21.335874231065,0.18747767055057002,-1.6740955310604557
163607,ELEC,EPA-RTP N. SURFACE LOT,Research Triangle Park,NC,27711,E,35.883498,-78.872654,,4,Durham,,,,,,,21.335874231065,0.18747767055057002,-1.6740955310604557,POINT (692028.1702797324 3973116.9064947083),59,4,Durham,,,,,,,21.335874231065,0.18747767055057002,-1.6740955310604557
184236,ELEC,HHS / NIH - North Carolina,Durham,NC,27713,E,35.882547,-78.873877,FED_GOV,4,Durham,,,,,,,21.335874231065,0.18747767055057002,-1.6740955310604557,POINT (691920.0540186686 3973009.0025310814),59,4,Durham,,,,,,,21.335874231065,0.18747767055057002,-1.6740955310604557
184435,ELEC,SSA North Carolina,Morrisville,NC,27560,E,35.877576,-78.88564,FED_GOV,4,Durham,,,,,,,21.335874231065,0.18747767055057002,-1.6740955310604557,POINT (690870.0161945362 3972434.4940709905),59,4,Durham,,,,,,,21.335874231065,0.18747767055057002,-1.6740955310604557
64755,ELEC,North Carolina State University - Keystone Science Center,Raleigh,NC,27606,E,35.774673,-78.677792,COLLEGE_CAMPUS,7874,Wake,37,NORTH CAROLINA,37183,Wake,37183052302,0.3975,9.867014694850786,798.0123921482692,6.682124126337091,POINT (709907.194277753 3961444.421691806),112,7874,Wake,37,NORTH CAROLINA,37183,Wake,37183052302,0.3975,9.867014694850786,798.0123921482692,6.682124126337091
152411,ELEC,NC STATE RESEARCH IV,Raleigh,NC,27606,E,35.772503,-78.681099,,7874,Wake,37,NORTH CAROLINA,37183,Wake,37183052302,0.3975,9.867014694850786,798.0123921482692,6.682124126337091,POINT (709613.9173278804 3961196.6003774675),112,7874,Wake,37,NORTH CAROLINA,37183,Wake,37183052302,0.3975,9.867014694850786,798.0123921482692,6.682124126337091
152412,ELEC,NC STATE OVAL WEST DECK,Raleigh,NC,27606,E,35.771109,-78.67638,,7874,Wake,37,NORTH CAROLINA,37183,Wake,37183052302,0.3975,9.867014694850786,798.0123921482692,6.682124126337091,POINT (710044.2277643741 3961052.060440424),112,7874,Wake,37,NORTH CAROLINA,37183,Wake,37183052302,0.3975,9.867014694850786,798.0123921482692,6.682124126337091
152413,ELEC,NC STATE PARTNERS II,Raleigh,NC,27606,E,35.775484,-78.675918,,7874,Wake,37,NORTH CAROLINA,37183,Wake,37183052302,0.3975,9.867014694850786,798.0123921482692,6.682124126337091,POINT (710074.4823297425 3961538.411814888),112,7874,Wake,37,NORTH CAROLINA,37183,Wake,37183052302,0.3975,9.867014694850786,798.0123921482692,6.682124126337091
152414,ELEC,NC STATE PARTNERS I,Raleigh,NC,27606,E,35.77042,-78.677132,,7874,Wake,37,NORTH CAROLINA,37183,Wake,37183052302,0.3975,9.867014694850786,798.0123921482692,6.682124126337091,POINT (709978.0510839556 3960974.0107414294),112,7874,Wake,37,NORTH CAROLINA,37183,Wake,37183052302,0.3975,9.867014694850786,798.0123921482692,6.682124126337091
174951,ELEC,NC STATE PARTNERS WY DCK,Raleigh,NC,27606,E,35.773777,-78.674447,,7874,Wake,37,NORTH CAROLINA,37183,Wake,37183052302,0.3975,9.867014694850786,798.0123921482692,6.682124126337091,POINT (710211.9657150031 3961352.1942514353),112,7874,Wake,37,NORTH CAROLINA,37183,Wake,37183052302,0.3975,9.867014694850786,798.0123921482692,6.682124126337091
68827,ELEC,ASBURYVILLAGE ASBURY STAT 1,Raleigh,NC,27607,E,35.795027,-78.738174,,3205,Wake,37,NORTH CAROLINA,37183,Wake,37183052401,0.1217,13.090835684753,244.82776173967937,5.5005549500075634,POINT (704396.1246689346 3963574.727327955),113,3205,Wake,37,NORTH CAROLINA,37183,Wake,37183052401,0.1217,13.090835684753,244.82776173967937,5.5005549500075634
104039,ELEC,HIGHWOODS RTP 751 CORP EV 1,Raleigh,NC,27607,E,35.793618,-78.741801,,3205,Wake,37,NORTH CAROLINA,37183,Wake,37183052401,0.1217,13.090835684753,244.82776173967937,5.5005549500075634,POINT (704071.911910069 3963410.8483940004),113,3205,Wake,37,NORTH CAROLINA,37183,Wake,37183052401,0.1217,13.090835684753,244.82776173967937,5.5005549500075634
152410,ELEC,NC STATE CBC PARKING DEC,Raleigh,NC,27606,E,35.797681,-78.70632,,3205,Wake,37,NORTH CAROLINA,37183,Wake,37183052401,0.1217,13.090835684753,244.82776173967937,5.5005549500075634,POINT (707268.2873019848 3963936.138705525),113,3205,Wake,37,NORTH CAROLINA,37183,Wake,37183052401,0.1217,13.090835684753,244.82776173967937,5.5005549500075634
167100,ELEC,Hyatt Place - Raleigh / Cary,Raleigh,NC,27607,E,35.791673,-78.738308,HOTEL,3205,Wake,37,NORTH CAROLINA,37183,Wake,37183052401,0.1217,13.090835684753,244.82776173967937,5.5005549500075634,POINT (704392.6082247987 3963202.3604291347),113,3205,Wake,37,NORTH CAROLINA,37183,Wake,37183052401,0.1217,13.090835684753,244.82776173967937,5.5005549500075634
173468,ELEC,HIGHWOODS RTP 751 CORP EV 2,Raleigh,NC,27607,E,35.793383,-78.742278,,3205,Wake,37,NORTH CAROLINA,37183,Wake,37183052401,0.1217,13.090835684753,244.82776173967937,5.5005549500075634,POINT (704029.3997834048 3963383.783676471),113,3205,Wake,37,NORTH CAROLINA,37183,Wake,37183052401,0.1217,13.090835684753,244.82776173967937,5.5005549500075634
183170,ELEC,"PNC ARENA PNC VIP 36,37",Raleigh,NC,27607,E,35.802486,-78.72239,,3205,Wake,37,NORTH CAROLINA,37183,Wake,37183052401,0.1217,13.090835684753,244.82776173967937,5.5005549500075634,POINT (705803.4761985145 3964435.2912674868),113,3205,Wake,37,NORTH CAROLINA,37183,Wake,37183052401,0.1217,13.090835684753,244.82776173967937,5.5005549500075634
183171,ELEC,"PNC ARENA PNC VIP 34,35",Raleigh,NC,27607,E,35.802444,-78.72236,,3205,Wake,37,NORTH CAROLINA,37183,Wake,37183052401,0.1217,13.090835684753,244.82776173967937,5.5005549500075634,POINT (705806.2958466837 3964430.694918217),113,3205,Wake,37,NORTH CAROLINA,37183,Wake,37183052401,0.1217,13.090835684753,244.82776173967937,5.5005549500075634
183172,ELEC,"PNC ARENA PNC VIP 32,33",Raleigh,NC,27607,E,35.802406,-78.72232,,3205,Wake,37,NORTH CAROLINA,37183,Wake,37183052401,0.1217,13.090835684753,244.82776173967937,5.5005549500075634,POINT (705810.0089189324 3964426.563353063),113,3205,Wake,37,NORTH CAROLINA,37183,Wake,37183052401,0.1217,13.090835684753,244.82776173967937,5.5005549500075634
228559,ELEC,Sheetz,Raleigh,NC,27607,E,35.789742,-78.739027,,3205,Wake,37,NORTH CAROLINA,37183,Wake,37183052401,0.1217,13.090835684753,244.82776173967937,5.5005549500075634,POINT (704332.5667521383 3962986.6377943754),113,3205,Wake,37,NORTH CAROLINA,37183,Wake,37183052401,0.1217,13.090835684753,244.82776173967937,5.5005549500075634
76736,ELEC,City of Durham - General Services,Durham,NC,27704,E,36.007,-78.87,MUNI_GOV,5974,Durham,37,NORTH CAROLINA,37063,Durham,37063001002,0.9755,3.349173373500189,1783.7237233725616,7.48645843756695,POINT (691968.6434633828 3986823.145996423),12,5974,Durham,37,NORTH CAROLINA,37063,Durham,37063001002,0.9755,3.349173373500189,1783.7237233725616,7.48645843756695
80023,ELEC,DEVON FOUR25 DEVON FOUR25,Raleigh,NC,27603,E,35.786358,-78.649851,,2488,Wake,37,NORTH CAROLINA,37183,Wake,37183050300,0.2078,1.0400603551339664,2392.1688656996544,7.779955708607024,POINT (712402.1575156132 3962801.0054924805),89,2488,Wake,37,NORTH CAROLINA,37183,Wake,37183050300,0.2078,1.0400603551339664,2392.1688656996544,7.779955708607024
167161,ELEC,222 GLENWOOD STATION #1,Raleigh,NC,27603,E,35.783534,-78.647169,,2488,Wake,37,NORTH CAROLINA,37183,Wake,37183050300,0.2078,1.0400603551339664,2392.1688656996544,7.779955708607024,POINT (712652.1223858612 3962493.5313305194),89,2488,Wake,37,NORTH CAROLINA,37183,Wake,37183050300,0.2078,1.0400603551339664,2392.1688656996544,7.779955708607024
80187,ELEC,DUKEPTS SDG 2,Durham,NC,27708,E,35.99613,-78.947421,,3070,Durham,37,NORTH CAROLINA,37063,Durham,37063001501,0.4137,2.7398304039642505,1120.5073115321402,7.021536818460335,POINT (685015.4459470138 3985467.4507780494),18,3070,Durham,37,NORTH CAROLINA,37063,Durham,37063001501,0.4137,2.7398304039642505,1120.5073115321402,7.021536818460335
80188,ELEC,DUKEPTS SDG VISITOR JB,Durham,NC,27708,E,35.996268,-78.947219,,3070,Durham,37,NORTH CAROLINA,37063,Durham,37063001501,0.4137,2.7398304039642505,1120.5073115321402,7.021536818460335,POINT (685033.333751345 3985483.1436516996),18,3070,Durham,37,NORTH CAROLINA,37063,Durham,37063001501,0.4137,2.7398304039642505,1120.5073115321402,7.021536818460335
81839,ELEC,DUKEPTS RDG1,Durham,NC,27710,E,36.00702,-78.941262,,3070,Durham,37,NORTH CAROLINA,37063,Durham,37063001501,0.4137,2.7398304039642505,1120.5073115321402,7.021536818460335,POINT (685545.1531244561 3986687.267362202),18,3070,Durham,37,NORTH CAROLINA,37063,Durham,37063001501,0.4137,2.7398304039642505,1120.5073115321402,7.021536818460335
164836,ELEC,DUKEPTS H LOT ANDERSON,Durham,NC,27705,E,36.005122,-78.930204,,3070,Durham,37,NORTH CAROLINA,37063,Durham,37063001501,0.4137,2.7398304039642505,1120.5073115321402,7.021536818460335,POINT (686546.3710274515 3986497.829128524),18,3070,Durham,37,NORTH CAROLINA,37063,Durham,37063001501,0.4137,2.7398304039642505,1120.5073115321402,7.021536818460335
171995,ELEC,DUKEPTS SDG 5,Durham,NC,27708,E,35.9961,-78.9474,,3070,Durham,37,NORTH CAROLINA,37063,Durham,37063001501,0.4137,2.7398304039642505,1120.5073115321402,7.021536818460335,POINT (685017.4092024907 3985464.1625535972),18,3070,Durham,37,NORTH CAROLINA,37063,Durham,37063001501,0.4137,2.7398304039642505,1120.5073115321402,7.021536818460335
171996,ELEC,DUKEPTS SDG 6,Durham,NC,27708,E,35.996125,-78.947466,,3070,Durham,37,NORTH CAROLINA,37063,Durham,37063001501,0.4137,2.7398304039642505,1120.5073115321402,7.021536818460335,POINT (685011.4008779363 3985466.810643428),18,3070,Durham,37,NORTH CAROLINA,37063,Durham,37063001501,0.4137,2.7398304039642505,1120.5073115321402,7.021536818460335
171997,ELEC,DUKEPTS SDG 4,Durham,NC,27708,E,35.996186,-78.947271,,3070,Durham,37,NORTH CAROLINA,37063,Durham,37063001501,0.4137,2.7398304039642505,1120.5073115321402,7.021536818460335,POINT (685028.8375868715 3985473.9480856485),18,3070,Durham,37,NORTH CAROLINA,37063,Durham,37063001501,0.4137,2.7398304039642505,1120.5073115321402,7.021536818460335
171998,ELEC,DUKEPTS SDG 3,Durham,NC,27708,E,35.996222,-78.947248,,3070,Durham,37,NORTH CAROLINA,37063,Durham,37063001501,0.4137,2.7398304039642505,1120.5073115321402,7.021536818460335,POINT (685030.8269054318 3985477.985487318),18,3070,Durham,37,NORTH CAROLINA,37063,Durham,37063001501,0.4137,2.7398304039642505,1120.5073115321402,7.021536818460335
171999,ELEC,DUKEPTS SDG 7,Durham,NC,27708,E,35.996042,-78.947512,,3070,Durham,37,NORTH CAROLINA,37063,Durham,37063001501,0.4137,2.7398304039642505,1120.5073115321402,7.021536818460335,POINT (685007.4479190876 3985457.515546376),18,3070,Durham,37,NORTH CAROLINA,37063,Durham,37063001501,0.4137,2.7398304039642505,1120.5073115321402,7.021536818460335
85655,ELEC,SAS Institute Inc - 940,Cary,NC,27513,E,35.820148,-78.798696,OFFICE_BLDG,6392,Wake,37,NORTH CAROLINA,37183,Wake,37183053512,0.1134,9.89294881812474,646.1167562384738,6.47098022466286,POINT (698863.344558291 3966236.9039010718),187,6392,Wake,37,NORTH CAROLINA,37183,Wake,37183053512,0.1134,9.89294881812474,646.1167562384738,6.47098022466286
117060,ELEC,HIGHWOODS RTP CENTREGREEN 1,Cary,NC,27513,T,35.82667,-78.79456,,6392,Wake,37,NORTH CAROLINA,37183,Wake,37183053512,0.1134,9.89294881812474,646.1167562384738,6.47098022466286,POINT (699220.7360694215 3966968.85263049),187,6392,Wake,37,NORTH CAROLINA,37183,Wake,37183053512,0.1134,9.89294881812474,646.1167562384738,6.47098022466286
117062,ELEC,HIGHWOODS RTP CENTREGREEN 4,Cary,NC,27513,E,35.826494,-78.794894,,6392,Wake,37,NORTH CAROLINA,37183,Wake,37183053512,0.1134,9.89294881812474,646.1167562384738,6.47098022466286,POINT (699191.0006813061 3966948.647468023),187,6392,Wake,37,NORTH CAROLINA,37183,Wake,37183053512,0.1134,9.89294881812474,646.1167562384738,6.47098022466286
123352,ELEC,Verizon - Cary,Cary,NC,27513,E,35.830871,-78.791809,OFFICE_BLDG,6392,Wake,37,NORTH CAROLINA,37183,Wake,37183053512,0.1134,9.89294881812474,646.1167562384738,6.47098022466286,POINT (699458.7577389422 3967440.5075737303),187,6392,Wake,37,NORTH CAROLINA,37183,Wake,37183053512,0.1134,9.89294881812474,646.1167562384738,6.47098022466286
143810,ELEC,MetLife - Cary,Cary,NC,27513,E,35.830019,-78.799133,OFFICE_BLDG,6392,Wake,37,NORTH CAROLINA,37183,Wake,37183053512,0.1134,9.89294881812474,646.1167562384738,6.47098022466286,POINT (698799.2275072999 3967331.0784184528),187,6392,Wake,37,NORTH CAROLINA,37183,Wake,37183053512,0.1134,9.89294881812474,646.1167562384738,6.47098022466286
173723,ELEC,HIGHWOODS RTP CENTREGREEN 3,Cary,NC,27513,T,35.826449,-78.794705,,6392,Wake,37,NORTH CAROLINA,37183,Wake,37183053512,0.1134,9.89294881812474,646.1167562384738,6.47098022466286,POINT (699208.1885769129 3966944.0401517325),187,6392,Wake,37,NORTH CAROLINA,37183,Wake,37183053512,0.1134,9.89294881812474,646.1167562384738,6.47098022466286
173724,ELEC,HIGHWOODS RTP CENTREGREEN 2,Cary,NC,27513,E,35.826509,-78.794769,,6392,Wake,37,NORTH CAROLINA,37183,Wake,37183053512,0.1134,9.89294881812474,646.1167562384738,6.47098022466286,POINT (699202.2564072483 3966950.5660706274),187,6392,Wake,37,NORTH CAROLINA,37183,Wake,37183053512,0.1134,9.89294881812474,646.1167562384738,6.47098022466286
225835,ELEC,Harrison Square - Tesla Supercharger,Cary,NC,27513,E,35.831585,-78.769044,SHOPPING_CENTER,6392,Wake,37,NORTH CAROLINA,37183,Wake,37183053512,0.1134,9.89294881812474,646.1167562384738,6.47098022466286,POINT (701513.5681929855 3967566.379952809),187,6392,Wake,37,NORTH CAROLINA,37183,Wake,37183053512,0.1134,9.89294881812474,646.1167562384738,6.47098022466286
86066,ELEC,Duke Energy,Durham,NC,27705,E,36.035299,-78.973331,UTILITY,6485,Durham,37,NORTH CAROLINA,37063,Durham,37063001707,0.2342,16.31006262781742,397.6073021902191,5.9854648402833375,POINT (682589.2483192665 3989763.8322164514),26,6485,Durham,37,NORTH CAROLINA,37063,Durham,37063001707,0.2342,16.31006262781742,397.6073021902191,5.9854648402833375
86104,ELEC,North Hills,Raleigh,NC,27609,E,35.835836,-78.642624,SHOPPING_CENTER,3054,Wake,37,NORTH CAROLINA,37183,Wake,37183052601,0.0574,3.318169401966832,920.3870056151303,6.824794239868513,POINT (712923.2173438935 3968305.8451385736),124,3054,Wake,37,NORTH CAROLINA,37183,Wake,37183052601,0.0574,3.318169401966832,920.3870056151303,6.824794239868513
102276,ELEC,North Hills - Tesla Supercharger,Raleigh,NC,27609,E,35.835539,-78.643001,,3054,Wake,37,NORTH CAROLINA,37183,Wake,37183052601,0.0574,3.318169401966832,920.3870056151303,6.824794239868513,POINT (712889.953834351 3968272.074770364),124,3054,Wake,37,NORTH CAROLINA,37183,Wake,37183052601,0.0574,3.318169401966832,920.3870056151303,6.824794239868513
169442,ELEC,North Hills,Raleigh,NC,27609,E,35.83788,-78.642,SHOPPING_CENTER,3054,Wake,37,NORTH CAROLINA,37183,Wake,37183052601,0.0574,3.318169401966832,920.3870056151303,6.824794239868513,POINT (712974.1213690401 3968533.968158417),124,3054,Wake,37,NORTH CAROLINA,37183,Wake,37183052601,0.0574,3.318169401966832,920.3870056151303,6.824794239868513
224401,ELEC,NORTH HILLS NORTH HILLS 1,Raleigh,NC,27609,E,35.83785,-78.642006,,3054,Wake,37,NORTH CAROLINA,37183,Wake,37183052601,0.0574,3.318169401966832,920.3870056151303,6.824794239868513,POINT (712973.6595956867 3968530.626848777),124,3054,Wake,37,NORTH CAROLINA,37183,Wake,37183052601,0.0574,3.318169401966832,920.3870056151303,6.824794239868513
86123,ELEC,Duke Energy,Cary,NC,27511,E,35.773958,-78.803281,UTILITY,3653,Wake,37,NORTH CAROLINA,37183,Wake,37183053518,0.043,2.8672394990612684,1274.0477386684959,7.149954306912406,POINT (698564.0460450202 3961103.4224673277),191,3653,Wake,37,NORTH CAROLINA,37183,Wake,37183053518,0.043,2.8672394990612684,1274.0477386684959,7.149954306912406
86124,ELEC,Duke Energy,Garner,NC,27529,E,35.71922,-78.629588,UTILITY,7761,Wake,37,NORTH CAROLINA,37183,Wake,37183054500,0.6516,13.197756893023854,588.0544749314449,6.376819588048629,POINT (714413.9730792069 3955396.8370804675),272,7761,Wake,37,NORTH CAROLINA,37183,Wake,37183054500,0.6516,13.197756893023854,588.0544749314449,6.376819588048629
86125,ELEC,Duke Energy,Raleigh,NC,27603,E,35.7417,-78.642369,UTILITY,7761,Wake,37,NORTH CAROLINA,37183,Wake,37183054500,0.6516,13.197756893023854,588.0544749314449,6.376819588048629,POINT (713197.7045484058 3957862.89312849),272,7761,Wake,37,NORTH CAROLINA,37183,Wake,37183054500,0.6516,13.197756893023854,588.0544749314449,6.376819588048629
143347,ELEC,TOBACCOROADHD DCFAST HOG,Raleigh,NC,27603,E,35.764973,-78.64961,,7761,Wake,37,NORTH CAROLINA,37183,Wake,37183054500,0.6516,13.197756893023854,588.0544749314449,6.376819588048629,POINT (712480.8710948313 3960429.0711798244),272,7761,Wake,37,NORTH CAROLINA,37183,Wake,37183054500,0.6516,13.197756893023854,588.0544749314449,6.376819588048629
86126,ELEC,Duke Energy,Raleigh,NC,27616,E,35.884757,-78.564544,UTILITY,12342,Wake,37,NORTH CAROLINA,37183,Wake,37183054014,0.7075,10.633292967226414,1160.6940613825,7.0567734339511325,POINT (719841.6628248243 3973906.1499698902),242,12342,Wake,37,NORTH CAROLINA,37183,Wake,37183054014,0.7075,10.633292967226414,1160.6940613825,7.0567734339511325
86956,ELEC,TOC EV STATIONS TOWNHALL,Carrboro,NC,27510,T,35.91116,-79.077496,,6064,Orange,37,NORTH CAROLINA,37135,Orange,37135010703,0.6358,2.380676603333016,2547.175030623742,7.842740192926037,POINT (673475.0903551974 3975802.279084757),61,6064,Orange,37,NORTH CAROLINA,37135,Orange,37135010703,0.6358,2.380676603333016,2547.175030623742,7.842740192926037
197954,ELEC,PIEDMONT EMC CARRBORO PLAZA,Carrboro,NC,27501,E,35.917219,-79.095546,,6064,Orange,37,NORTH CAROLINA,37135,Orange,37135010703,0.6358,2.380676603333016,2547.175030623742,7.842740192926037,POINT (671833.0686802214 3976442.498713246),61,6064,Orange,37,NORTH CAROLINA,37135,Orange,37135010703,0.6358,2.380676603333016,2547.175030623742,7.842740192926037
87609,ELEC,DUKEPTS PG2 LEVEL 7,Durham,NC,27705,E,36.008327,-78.937789,,5986,Durham,37,NORTH CAROLINA,37063,Durham,37063001502,0.8575,2.458351367120124,2434.9651884841824,7.7976877391040995,POINT (685855.1322690308 3986838.8834028845),19,5986,Durham,37,NORTH CAROLINA,37063,Durham,37063001502,0.8575,2.458351367120124,2434.9651884841824,7.7976877391040995
172558,ELEC,DUKEPTS PG2 LEVEL 3,Durham,NC,27705,E,36.008353,-78.937789,,5986,Durham,37,NORTH CAROLINA,37063,Durham,37063001502,0.8575,2.458351367120124,2434.9651884841824,7.7976877391040995,POINT (685855.0712091848 3986841.767768662),19,5986,Durham,37,NORTH CAROLINA,37063,Durham,37063001502,0.8575,2.458351367120124,2434.9651884841824,7.7976877391040995
87656,ELEC,TOWN OF CARY BOND PARK BH,Cary,NC,27513,E,35.781304,-78.825552,,2413,Wake,37,NORTH CAROLINA,37183,Wake,37183053525,0.0902,2.6040335527887186,926.6393658468277,6.831564456266207,POINT (696532.5433541539 3961873.438144246),198,2413,Wake,37,NORTH CAROLINA,37183,Wake,37183053525,0.0902,2.6040335527887186,926.6393658468277,6.831564456266207
92409,ELEC,WF EV STATIONS S WHITE EV,Wake Forest,NC,27587,E,35.978194,-78.510054,,4917,Wake,37,NORTH CAROLINA,37183,Wake,37183054206,0.3683,9.080671859499216,541.4797578943861,6.294305684199191,POINT (724496.7539454321 3984396.6559793977),261,4917,Wake,37,NORTH CAROLINA,37183,Wake,37183054206,0.3683,9.080671859499216,541.4797578943861,6.294305684199191
166989,ELEC,"Walmart 5254 - Wake Forest, NC",Wake Forest,NC,27587,E,35.95154,-78.53398,,4917,Wake,37,NORTH CAROLINA,37183,Wake,37183054206,0.3683,9.080671859499216,541.4797578943861,6.294305684199191,POINT (722413.9315815995 3981384.6438624184),261,4917,Wake,37,NORTH CAROLINA,37183,Wake,37183054206,0.3683,9.080671859499216,541.4797578943861,6.294305684199191
228107,ELEC,AAA,Wake Forest,NC,27587,T,35.95034,-78.53849,,4917,Wake,37,NORTH CAROLINA,37183,Wake,37183054206,0.3683,9.080671859499216,541.4797578943861,6.294305684199191,POINT (722010.4497413819 3981241.231492136),261,4917,Wake,37,NORTH CAROLINA,37183,Wake,37183054206,0.3683,9.080671859499216,541.4797578943861,6.294305684199191
99843,ELEC,WEINSTEIN TRIANGLE1,Cary,NC,27519,E,35.857658,-78.89673,,5351,Wake,37,NORTH CAROLINA,37183,Wake,37183053601,0.2587,10.320597585407743,518.4777291932941,6.250897074371585,POINT (689916.2909502815 3970203.267535945),199,5351,Wake,37,NORTH CAROLINA,37183,Wake,37183053601,0.2587,10.320597585407743,518.4777291932941,6.250897074371585
121242,ELEC,WHOLE FOODS MKT CARY 1,Cary,NC,27519,T,35.833397,-78.882386,,5351,Wake,37,NORTH CAROLINA,37183,Wake,37183053601,0.2587,10.320597585407743,518.4777291932941,6.250897074371585,POINT (691269.9570380975 3967539.817754362),199,5351,Wake,37,NORTH CAROLINA,37183,Wake,37183053601,0.2587,10.320597585407743,518.4777291932941,6.250897074371585
143362,ELEC,WHOLE FOODS MKT CARY 2,Cary,NC,27519,T,35.833866,-78.882119,,5351,Wake,37,NORTH CAROLINA,37183,Wake,37183053601,0.2587,10.320597585407743,518.4777291932941,6.250897074371585,POINT (691292.9504331811 3967592.368695021),199,5351,Wake,37,NORTH CAROLINA,37183,Wake,37183053601,0.2587,10.320597585407743,518.4777291932941,6.250897074371585
228557,ELEC,Sheetz,Cary,NC,27519,E,35.860412,-78.89456,,5351,Wake,37,NORTH CAROLINA,37183,Wake,37183053601,0.2587,10.320597585407743,518.4777291932941,6.250897074371585,POINT (690105.6810020691 3970513.0025061904),199,5351,Wake,37,NORTH CAROLINA,37183,Wake,37183053601,0.2587,10.320597585407743,518.4777291932941,6.250897074371585
99977,ELEC,WEINSTEIN BRIER1,Raleigh,NC,27617,E,35.910497,-78.787751,,8620,Wake,37,NORTH CAROLINA,37183,Wake,37183053610,0.0426,12.058403495654886,714.854168141423,6.572078561249841,POINT (699625.4065954003 3976282.3671506536),208,8620,Wake,37,NORTH CAROLINA,37183,Wake,37183053610,0.0426,12.058403495654886,714.854168141423,6.572078561249841
154064,ELEC,SPG ELVT BRIER CRK.,Raleigh,NC,27617,E,35.896455,-78.805318,,8620,Wake,37,NORTH CAROLINA,37183,Wake,37183053610,0.0426,12.058403495654886,714.854168141423,6.572078561249841,POINT (698074.9880850101 3974688.790298358),208,8620,Wake,37,NORTH CAROLINA,37183,Wake,37183053610,0.0426,12.058403495654886,714.854168141423,6.572078561249841
168570,ELEC,Aloft Raleigh Durham Airport/Brier Creek - Tesla Destination,Raleigh,NC,27617,E,35.895611,-78.807676,,8620,Wake,37,NORTH CAROLINA,37183,Wake,37183053610,0.0426,12.058403495654886,714.854168141423,6.572078561249841,POINT (697864.2421485865 3974590.378315688),208,8620,Wake,37,NORTH CAROLINA,37183,Wake,37183053610,0.0426,12.058403495654886,714.854168141423,6.572078561249841
228777,ELEC,Lowes Foods - Brier Creek,Raleigh,NC,27617,E,35.910055,-78.785178,,8620,Wake,37,NORTH CAROLINA,37183,Wake,37183053610,0.0426,12.058403495654886,714.854168141423,6.572078561249841,POINT (699858.7335376962 3976238.5965715554),208,8620,Wake,37,NORTH CAROLINA,37183,Wake,37183053610,0.0426,12.058403495654886,714.854168141423,6.572078561249841
104930,ELEC,PARK CENTRAL PC STATION 2,Raleigh,NC,27609,E,35.835634,-78.637195,,3723,Wake,37,NORTH CAROLINA,37183,Wake,37183052602,0.2938,3.3952921023846843,1096.5183223514555,6.999895277569183,POINT (713414.205580443 3968295.2693708297),125,3723,Wake,37,NORTH CAROLINA,37183,Wake,37183052602,0.2938,3.3952921023846843,1096.5183223514555,6.999895277569183
123246,ELEC,Captrust Tower,Raleigh,NC,27609,E,35.837015,-78.640051,,3723,Wake,37,NORTH CAROLINA,37183,Wake,37183052602,0.2938,3.3952921023846843,1096.5183223514555,6.999895277569183,POINT (713152.501784153 3968442.250432896),125,3723,Wake,37,NORTH CAROLINA,37183,Wake,37183052602,0.2938,3.3952921023846843,1096.5183223514555,6.999895277569183
143180,ELEC,NORTH HILLS 201 PARK,Raleigh,NC,27609,E,35.836906,-78.63726,,3723,Wake,37,NORTH CAROLINA,37183,Wake,37183052602,0.2938,3.3952921023846843,1096.5183223514555,6.999895277569183,POINT (713404.9245601217 3968436.245095129),125,3723,Wake,37,NORTH CAROLINA,37183,Wake,37183052602,0.2938,3.3952921023846843,1096.5183223514555,6.999895277569183
163963,ELEC,Park & Market,Raleigh,NC,27609,E,35.837988,-78.638219,,3723,Wake,37,NORTH CAROLINA,37183,Wake,37183052602,0.2938,3.3952921023846843,1096.5183223514555,6.999895277569183,POINT (713315.3925067284 3968554.1913523427),125,3723,Wake,37,NORTH CAROLINA,37183,Wake,37183052602,0.2938,3.3952921023846843,1096.5183223514555,6.999895277569183
169441,ELEC,Bank of America,Raleigh,NC,27609,E,35.83798,-78.640714,BANK,3723,Wake,37,NORTH CAROLINA,37183,Wake,37183052602,0.2938,3.3952921023846843,1096.5183223514555,6.999895277569183,POINT (713090.025830177 3968547.863934008),125,3723,Wake,37,NORTH CAROLINA,37183,Wake,37183052602,0.2938,3.3952921023846843,1096.5183223514555,6.999895277569183
169443,ELEC,Midtown Plaza,Raleigh,NC,27609,E,35.834809,-78.635398,SHOPPING_CENTER,3723,Wake,37,NORTH CAROLINA,37183,Wake,37183052602,0.2938,3.3952921023846843,1096.5183223514555,6.999895277569183,POINT (713578.7568489308 3968207.6658059666),125,3723,Wake,37,NORTH CAROLINA,37183,Wake,37183052602,0.2938,3.3952921023846843,1096.5183223514555,6.999895277569183
173582,ELEC,PARK CENTRAL PC STATION 1,Raleigh,NC,27609,T,35.835779,-78.637277,,3723,Wake,37,NORTH CAROLINA,37183,Wake,37183052602,0.2938,3.3952921023846843,1096.5183223514555,6.999895277569183,POINT (713406.4092155099 3968311.1769353957),125,3723,Wake,37,NORTH CAROLINA,37183,Wake,37183052602,0.2938,3.3952921023846843,1096.5183223514555,6.999895277569183
189787,ELEC,ADVANCE AUTO STATION 2,Raleigh,NC,27609,E,35.836069,-78.639554,,3723,Wake,37,NORTH CAROLINA,37183,Wake,37183052602,0.2938,3.3952921023846843,1096.5183223514555,6.999895277569183,POINT (713199.9321435457 3968338.3832840724),125,3723,Wake,37,NORTH CAROLINA,37183,Wake,37183052602,0.2938,3.3952921023846843,1096.5183223514555,6.999895277569183
221433,ELEC,VINE KANE 1,Raleigh,NC,27609,E,35.836163,-78.639445,,3723,Wake,37,NORTH CAROLINA,37183,Wake,37183052602,0.2938,3.3952921023846843,1096.5183223514555,6.999895277569183,POINT (713209.5273055725 3968349.049424504),125,3723,Wake,37,NORTH CAROLINA,37183,Wake,37183052602,0.2938,3.3952921023846843,1096.5183223514555,6.999895277569183
229479,ELEC,DILLON STATION EASTERN 4TH LVL,Raleigh,NC,27609,E,35.836024,-78.639451,,3723,Wake,37,NORTH CAROLINA,37183,Wake,37183052602,0.2938,3.3952921023846843,1096.5183223514555,6.999895277569183,POINT (713209.3574554815 3968333.61548372),125,3723,Wake,37,NORTH CAROLINA,37183,Wake,37183052602,0.2938,3.3952921023846843,1096.5183223514555,6.999895277569183
114661,ELEC,The Mayton Inn - Tesla Destination,Cary,NC,27511,E,35.784835,-78.780847,INN,4672,Wake,37,NORTH CAROLINA,37183,Wake,37183053517,0.7759999999999999,4.103564653277247,1138.5223323504313,7.03748650090248,POINT (700564.8653184653 3962355.797336937),190,4672,Wake,37,NORTH CAROLINA,37183,Wake,37183053517,0.7759999999999999,4.103564653277247,1138.5223323504313,7.03748650090248
147303,ELEC,TOWN OF CARY DT DECK P5,Cary,NC,27511,E,35.783205,-78.779345,,4672,Wake,37,NORTH CAROLINA,37183,Wake,37183053517,0.7759999999999999,4.103564653277247,1138.5223323504313,7.03748650090248,POINT (700704.7364054401 3962178.0472617624),190,4672,Wake,37,NORTH CAROLINA,37183,Wake,37183053517,0.7759999999999999,4.103564653277247,1138.5223323504313,7.03748650090248
174577,ELEC,TOWN OF CARY DT DECK P3 WEST,Cary,NC,27511,E,35.785283,-78.779283,,4672,Wake,37,NORTH CAROLINA,37183,Wake,37183053517,0.7759999999999999,4.103564653277247,1138.5223323504313,7.03748650090248,POINT (700705.1136849391 3962408.701815956),190,4672,Wake,37,NORTH CAROLINA,37183,Wake,37183053517,0.7759999999999999,4.103564653277247,1138.5223323504313,7.03748650090248
174578,ELEC,TOWN OF CARY DT DECK P2 (1),Cary,NC,27511,T,35.785448,-78.779412,,4672,Wake,37,NORTH CAROLINA,37183,Wake,37183053517,0.7759999999999999,4.103564653277247,1138.5223323504313,7.03748650090248,POINT (700693.0379488892 3962426.7420483115),190,4672,Wake,37,NORTH CAROLINA,37183,Wake,37183053517,0.7759999999999999,4.103564653277247,1138.5223323504313,7.03748650090248
174579,ELEC,TOWN OF CARY DT DECK P6,Cary,NC,27511,E,35.785228,-78.779495,,4672,Wake,37,NORTH CAROLINA,37183,Wake,37183053517,0.7759999999999999,4.103564653277247,1138.5223323504313,7.03748650090248,POINT (700686.0887242323 3962402.1657503867),190,4672,Wake,37,NORTH CAROLINA,37183,Wake,37183053517,0.7759999999999999,4.103564653277247,1138.5223323504313,7.03748650090248
174580,ELEC,TOWN OF CARY DT DECK P4,Cary,NC,27511,E,35.783205,-78.779366,,4672,Wake,37,NORTH CAROLINA,37183,Wake,37183053517,0.7759999999999999,4.103564653277247,1138.5223323504313,7.03748650090248,POINT (700702.8381041187 3962178.004220115),190,4672,Wake,37,NORTH CAROLINA,37183,Wake,37183053517,0.7759999999999999,4.103564653277247,1138.5223323504313,7.03748650090248
174581,ELEC,TOWN OF CARY DT DECK P3 EAST,Cary,NC,27511,E,35.783205,-78.77927,,4672,Wake,37,NORTH CAROLINA,37183,Wake,37183053517,0.7759999999999999,4.103564653277247,1138.5223323504313,7.03748650090248,POINT (700711.5160530887 3962178.200985257),190,4672,Wake,37,NORTH CAROLINA,37183,Wake,37183053517,0.7759999999999999,4.103564653277247,1138.5223323504313,7.03748650090248
174582,ELEC,TOWN OF CARY DT DECK P2 (2),Cary,NC,27511,E,35.785387,-78.779701,,4672,Wake,37,NORTH CAROLINA,37183,Wake,37183053517,0.7759999999999999,4.103564653277247,1138.5223323504313,7.03748650090248,POINT (700667.067864944 3962419.382582489),190,4672,Wake,37,NORTH CAROLINA,37183,Wake,37183053517,0.7759999999999999,4.103564653277247,1138.5223323504313,7.03748650090248
206303,ELEC,URBAN PLACE URBAN PLACE,Cary,NC,27511,E,35.788277,-78.773542,,4672,Wake,37,NORTH CAROLINA,37183,Wake,37183053517,0.7759999999999999,4.103564653277247,1138.5223323504313,7.03748650090248,POINT (701216.5085021299 3962752.630956861),190,4672,Wake,37,NORTH CAROLINA,37183,Wake,37183053517,0.7759999999999999,4.103564653277247,1138.5223323504313,7.03748650090248
114665,ELEC,The Carolina Inn - Tesla Destination,Chapel Hill,NC,27516,E,35.909674,-79.054415,INN,2350,Orange,,,,,,,0.6664899238205316,3525.9347756212946,8.167900864664572,POINT (675561.3144718838 3975678.687590746),79,2350,Orange,,,,,,,0.6664899238205316,3525.9347756212946,8.167900864664572
205061,ELEC,UNC COBB DECK,Chapel Hill,NC,27514,E,35.911594,-79.045098,,2350,Orange,,,,,,,0.6664899238205316,3525.9347756212946,8.167900864664572,POINT (676397.879307813 3975908.4720818656),79,2350,Orange,,,,,,,0.6664899238205316,3525.9347756212946,8.167900864664572
114682,ELEC,Arrowhead Inn Bed & Breakfast - Tesla Destination,Durham,NC,27712,E,36.118217,-78.903677,B_AND_B,6271,Durham,37,NORTH CAROLINA,37063,Durham,37063001603,0.1934,25.895541613442486,242.1652380788474,5.489620295132181,POINT (688667.178634326 3999095.573967137),22,6271,Durham,37,NORTH CAROLINA,37063,Durham,37063001603,0.1934,25.895541613442486,242.1652380788474,5.489620295132181
156357,ELEC,DURHAM COUNTY NLIB RIGHT,Durham,NC,27712,E,36.087715,-78.914126,,6271,Durham,37,NORTH CAROLINA,37063,Durham,37063001603,0.1934,25.895541613442486,242.1652380788474,5.489620295132181,POINT (687799.2710705915 3995691.4643040593),22,6271,Durham,37,NORTH CAROLINA,37063,Durham,37063001603,0.1934,25.895541613442486,242.1652380788474,5.489620295132181
175681,ELEC,DURHAM COUNTY NLIB LEFT,Durham,NC,27712,E,36.088806,-78.914461,,6271,Durham,37,NORTH CAROLINA,37063,Durham,37063001603,0.1934,25.895541613442486,242.1652380788474,5.489620295132181,POINT (687766.5094306767 3995811.851595214),22,6271,Durham,37,NORTH CAROLINA,37063,Durham,37063001603,0.1934,25.895541613442486,242.1652380788474,5.489620295132181
114683,ELEC,The King's Daughters Inn - Tesla Destination,Durham,NC,27701,E,36.003728,-78.912068,INN,3426,Durham,37,NORTH CAROLINA,37063,Durham,37063000302,0.3392,1.7222853027476905,1989.217462713202,7.595496605563966,POINT (688184.4693606385 3986378.066211168),4,3426,Durham,37,NORTH CAROLINA,37063,Durham,37063000302,0.3392,1.7222853027476905,1989.217462713202,7.595496605563966
114684,ELEC,Homewood Suites by Hilton Durham-Chapel Hill - Tesla Destination,Durham,NC,27707,E,35.94969,-78.99566,HOTEL,7483,Durham,37,NORTH CAROLINA,37063,Durham,37063002018,0.2272,18.06486065597977,414.2295998017013,6.026420408990727,POINT (680772.6246266523 3980225.089211852),45,7483,Durham,37,NORTH CAROLINA,37063,Durham,37063002018,0.2272,18.06486065597977,414.2295998017013,6.026420408990727
191099,ELEC,Gateway Terrace - Tesla Supercharger,Durham,NC,27707,E,35.953056,-78.991028,SHOPPING_CENTER,7483,Durham,37,NORTH CAROLINA,37063,Durham,37063002018,0.2272,18.06486065597977,414.2295998017013,6.026420408990727,POINT (681182.7510901354 3980607.0909463316),45,7483,Durham,37,NORTH CAROLINA,37063,Durham,37063002018,0.2272,18.06486065597977,414.2295998017013,6.026420408990727
114703,ELEC,Aloft Raleigh - Tesla Destination,Raleigh,NC,27607,E,35.786762,-78.663393,HOTEL,3476,Wake,37,NORTH CAROLINA,37183,Wake,37183051200,0.2013,1.8728080782903078,1856.0364194783115,7.526198535717372,POINT (711176.9700812818 3962816.531971488),99,3476,Wake,37,NORTH CAROLINA,37183,Wake,37183051200,0.2013,1.8728080782903078,1856.0364194783115,7.526198535717372
164409,ELEC,401 Oberlin Apartments,Raleigh,NC,27605,E,35.790001,-78.663673,,3476,Wake,37,NORTH CAROLINA,37183,Wake,37183051200,0.2013,1.8728080782903078,1856.0364194783115,7.526198535717372,POINT (711143.0864279228 3963175.2630199995),99,3476,Wake,37,NORTH CAROLINA,37183,Wake,37183051200,0.2013,1.8728080782903078,1856.0364194783115,7.526198535717372
231712,ELEC,616 PARKING GARAGE,Raleigh,NC,27605,E,35.793191,-78.661904,,3476,Wake,37,NORTH CAROLINA,37183,Wake,37183051200,0.2013,1.8728080782903078,1856.0364194783115,7.526198535717372,POINT (711294.5353793998 3963532.978877526),99,3476,Wake,37,NORTH CAROLINA,37183,Wake,37183051200,0.2013,1.8728080782903078,1856.0364194783115,7.526198535717372
116939,ELEC,HONDASOUTHPOINT STATION01,Durham,NC,27713,E,35.907356,-78.954543,,4432,Durham,37,NORTH CAROLINA,37063,Durham,37063002021,0.4586,6.048972323454127,732.6864404413753,6.596717834704754,POINT (684579.9006732823 3975605.729324823),48,4432,Durham,37,NORTH CAROLINA,37063,Durham,37063002021,0.4586,6.048972323454127,732.6864404413753,6.596717834704754
157968,ELEC,Hendrick Chevrolet,Durham,NC,27713,E,35.898567,-78.942932,CAR_DEALER,4432,Durham,37,NORTH CAROLINA,37063,Durham,37063002021,0.4586,6.048972323454127,732.6864404413753,6.596717834704754,POINT (685648.3430438472 3974652.730636094),48,4432,Durham,37,NORTH CAROLINA,37063,Durham,37063002021,0.4586,6.048972323454127,732.6864404413753,6.596717834704754
173706,ELEC,HONDASOUTHPOINT SHOP01,Durham,NC,27713,T,35.90736,-78.954091,,4432,Durham,37,NORTH CAROLINA,37063,Durham,37063002021,0.4586,6.048972323454127,732.6864404413753,6.596717834704754,POINT (684620.6848394566 3975607.0276263077),48,4432,Durham,37,NORTH CAROLINA,37063,Durham,37063002021,0.4586,6.048972323454127,732.6864404413753,6.596717834704754
189719,ELEC,HONDASOUTHPOINT SHOP02,Durham,NC,27713,T,35.907314,-78.954229,,4432,Durham,37,NORTH CAROLINA,37063,Durham,37063002021,0.4586,6.048972323454127,732.6864404413753,6.596717834704754,POINT (684608.3371033587 3975601.6636832687),48,4432,Durham,37,NORTH CAROLINA,37063,Durham,37063002021,0.4586,6.048972323454127,732.6864404413753,6.596717834704754
119005,ELEC,RALEIGH STATION DC FAST 02,Raleigh,NC,27616,E,35.887798,-78.568955,,6083,Wake,37,NORTH CAROLINA,37183,Wake,37183054016,0.0559999999999999,6.125754500899759,993.0205330798877,6.90075134165605,POINT (719435.0228050209 3974233.6111620963),244,6083,Wake,37,NORTH CAROLINA,37183,Wake,37183054016,0.0559999999999999,6.125754500899759,993.0205330798877,6.90075134165605
173848,ELEC,RALEIGH STATION SHOP 02,Raleigh,NC,27616,T,35.887772,-78.568741,,6083,Wake,37,NORTH CAROLINA,37183,Wake,37183054016,0.0559999999999999,6.125754500899759,993.0205330798877,6.90075134165605,POINT (719454.4146787801 3974231.20746451),244,6083,Wake,37,NORTH CAROLINA,37183,Wake,37183054016,0.0559999999999999,6.125754500899759,993.0205330798877,6.90075134165605
173849,ELEC,RALEIGH STATION SHOP 01,Raleigh,NC,27616,T,35.887789,-78.568955,,6083,Wake,37,NORTH CAROLINA,37183,Wake,37183054016,0.0559999999999999,6.125754500899759,993.0205330798877,6.90075134165605,POINT (719435.0476549664 3974232.612665873),244,6083,Wake,37,NORTH CAROLINA,37183,Wake,37183054016,0.0559999999999999,6.125754500899759,993.0205330798877,6.90075134165605
173852,ELEC,RALEIGH STATION STATION 01,Raleigh,NC,27616,T,35.887893,-78.568977,,6083,Wake,37,NORTH CAROLINA,37183,Wake,37183054016,0.0559999999999999,6.125754500899759,993.0205330798877,6.90075134165605,POINT (719432.7743258253 3974244.101413987),244,6083,Wake,37,NORTH CAROLINA,37183,Wake,37183054016,0.0559999999999999,6.125754500899759,993.0205330798877,6.90075134165605
187820,ELEC,RALEIGH STATION STATION 02,Raleigh,NC,27616,E,35.887839,-78.568953,,6083,Wake,37,NORTH CAROLINA,37183,Wake,37183054016,0.0559999999999999,6.125754500899759,993.0205330798877,6.90075134165605,POINT (719435.0901610312 3974238.1643608343),244,6083,Wake,37,NORTH CAROLINA,37183,Wake,37183054016,0.0559999999999999,6.125754500899759,993.0205330798877,6.90075134165605
120893,ELEC,Marlowe Lake Boone Apartments,Raleigh,NC,27607,E,35.814248,-78.689886,,2454,Wake,37,NORTH CAROLINA,37183,Wake,37183051502,0.0194,2.675926833010371,917.0654330781133,6.821178825303048,POINT (708710.2225288174 3965809.000234148),102,2454,Wake,37,NORTH CAROLINA,37183,Wake,37183051502,0.0194,2.675926833010371,917.0654330781133,6.821178825303048
195865,ELEC,Sojourn Lake Boone - Building 2,Raleigh,NC,27607,E,35.810668,-78.692517,,2454,Wake,37,NORTH CAROLINA,37183,Wake,37183051502,0.0194,2.675926833010371,917.0654330781133,6.821178825303048,POINT (708481.8449523239 3965406.2270285143),102,2454,Wake,37,NORTH CAROLINA,37183,Wake,37183051502,0.0194,2.675926833010371,917.0654330781133,6.821178825303048
228802,ELEC,Ridgewood Shopping Center,Raleigh,NC,27607,E,35.8017173,-78.6841435,,2454,Wake,37,NORTH CAROLINA,37183,Wake,37183051502,0.0194,2.675926833010371,917.0654330781133,6.821178825303048,POINT (709262.0184133585 3964431.110372309),102,2454,Wake,37,NORTH CAROLINA,37183,Wake,37183051502,0.0194,2.675926833010371,917.0654330781133,6.821178825303048
121809,ELEC,Pleasant Valley Promenade,Raleigh,NC,27612,E,35.85731,-78.70359,,2018,Wake,37,NORTH CAROLINA,37183,Wake,37183052506,0.0949,2.8966528778691827,696.6661471306387,6.546306310544974,POINT (707359.7443237186 3970557.146216754),122,2018,Wake,37,NORTH CAROLINA,37183,Wake,37183052506,0.0949,2.8966528778691827,696.6661471306387,6.546306310544974
222883,ELEC,CROSSPOINTE II STATION1,Raleigh,NC,27612,E,35.857493,-78.683177,,2018,Wake,37,NORTH CAROLINA,37183,Wake,37183052506,0.0949,2.8966528778691827,696.6661471306387,6.546306310544974,POINT (709202.8194405315 3970620.9466356067),122,2018,Wake,37,NORTH CAROLINA,37183,Wake,37183052506,0.0949,2.8966528778691827,696.6661471306387,6.546306310544974
122499,ELEC,Hyatt Place Chapel Hill Southern Village - Tesla Destination,Chapel Hill,NC,27517,E,35.902408,-79.032347,,1812,Orange,37,NORTH CAROLINA,37135,Orange,37135011500,0.1268,3.7589521436167734,482.0492336081026,6.178046253249366,POINT (677569.1221416855 3974912.549673017),78,1812,Orange,37,NORTH CAROLINA,37135,Orange,37135011500,0.1268,3.7589521436167734,482.0492336081026,6.178046253249366
145218,ELEC,WF EV STATIONS TOWN HALL EV2,Wake Forest,NC,27587,E,35.976385,-78.508178,,4796,Wake,37,NORTH CAROLINA,37183,Wake,37183054205,0.665,7.708697734738815,622.1543722472207,6.433188248838546,POINT (724671.060870561 3984200.276435804),260,4796,Wake,37,NORTH CAROLINA,37183,Wake,37183054205,0.665,7.708697734738815,622.1543722472207,6.433188248838546
145219,ELEC,WF EV STATIONS TOWN HALL EV1,Wake Forest,NC,27587,E,35.97614,-78.508776,,4796,Wake,37,NORTH CAROLINA,37183,Wake,37183054205,0.665,7.708697734738815,622.1543722472207,6.433188248838546,POINT (724617.8272985133 3984171.7159354556),260,4796,Wake,37,NORTH CAROLINA,37183,Wake,37183054205,0.665,7.708697734738815,622.1543722472207,6.433188248838546
145473,ELEC,Mills Rentals,Carrboro,NC,27510,E,35.909422,-79.071185,OFFICE_BLDG,4573,Orange,37,NORTH CAROLINA,37135,Orange,37135010705,0.3341,3.961088232986514,1154.4807212113342,7.051405929834278,POINT (674048.4324980808 3975620.709336031),63,4573,Orange,37,NORTH CAROLINA,37135,Orange,37135010705,0.3341,3.961088232986514,1154.4807212113342,7.051405929834278
206923,ELEC,TOC EV STATIONS 604ROSEMARYPARK,Carrboro,NC,27510,E,35.91117,-79.066019,,4573,Orange,37,NORTH CAROLINA,37135,Orange,37135010705,0.3341,3.961088232986514,1154.4807212113342,7.051405929834278,POINT (674510.8065770085 3975823.8408364756),63,4573,Orange,37,NORTH CAROLINA,37135,Orange,37135010705,0.3341,3.961088232986514,1154.4807212113342,7.051405929834278
147449,ELEC,PowerSecure,Wake Forest,NC,27587,E,35.951814,-78.515486,OFFICE_BLDG,6134,Wake,37,NORTH CAROLINA,37183,Wake,37183054208,0.4433,17.91310264972995,342.4309076960754,5.836069907997652,POINT (724081.4841056231 3981457.38463925),263,6134,Wake,37,NORTH CAROLINA,37183,Wake,37183054208,0.4433,17.91310264972995,342.4309076960754,5.836069907997652
226812,ELEC,WESTGATEKIA STATION 1,Wake Forest,NC,27587,E,35.945528,-78.536713,,6134,Wake,37,NORTH CAROLINA,37183,Wake,37183054208,0.4433,17.91310264972995,342.4309076960754,5.836069907997652,POINT (722184.2358444687 3980711.407577064),263,6134,Wake,37,NORTH CAROLINA,37183,Wake,37183054208,0.4433,17.91310264972995,342.4309076960754,5.836069907997652
147472,ELEC,ACCESSO SERVICE EVARC 252,Durham,NC,27713,T,35.91207,-78.903574,,7272,Durham,37,NORTH CAROLINA,37063,Durham,37063002027,0.6076,16.65828146035291,436.53962849094165,6.078879158079602,POINT (689168.7003786204 3976226.237522374),54,7272,Durham,37,NORTH CAROLINA,37063,Durham,37063002027,0.6076,16.65828146035291,436.53962849094165,6.078879158079602
147473,ELEC,ACCESSO SERVICE EVARC 253,Durham,NC,27713,E,35.913395,-78.90265,,7272,Durham,37,NORTH CAROLINA,37063,Durham,37063002027,0.6076,16.65828146035291,436.53962849094165,6.078879158079602,POINT (689248.9307367627 3976375.0190405613),54,7272,Durham,37,NORTH CAROLINA,37063,Durham,37063002027,0.6076,16.65828146035291,436.53962849094165,6.078879158079602
147474,ELEC,ACCESSO SERVICE EVARC 251,Durham,NC,27713,E,35.91031,-78.898291,,7272,Durham,37,NORTH CAROLINA,37063,Durham,37063002027,0.6076,16.65828146035291,436.53962849094165,6.078879158079602,POINT (689649.6759198564 3976041.2390685095),54,7272,Durham,37,NORTH CAROLINA,37063,Durham,37063002027,0.6076,16.65828146035291,436.53962849094165,6.078879158079602
156353,ELEC,DURHAM COUNTY SLIB LEFT,Durham,NC,27713,E,35.902015,-78.887916,,7272,Durham,37,NORTH CAROLINA,37063,Durham,37063002027,0.6076,16.65828146035291,436.53962849094165,6.078879158079602,POINT (690605.9097301859 3975141.223545894),54,7272,Durham,37,NORTH CAROLINA,37063,Durham,37063002027,0.6076,16.65828146035291,436.53962849094165,6.078879158079602
156354,ELEC,DURHAM COUNTY SLIB RIGHT,Durham,NC,27713,E,35.90196,-78.887922,,7272,Durham,37,NORTH CAROLINA,37063,Durham,37063002027,0.6076,16.65828146035291,436.53962849094165,6.078879158079602,POINT (690605.5001328621 3975135.1103246836),54,7272,Durham,37,NORTH CAROLINA,37063,Durham,37063002027,0.6076,16.65828146035291,436.53962849094165,6.078879158079602
148553,ELEC,Bob Barker Company,Fuquay Varina,NC,27526,T,35.586162,-78.79956,,8267,Wake,37,NORTH CAROLINA,37183,Wake,37183053107,0.4095,23.70446156027976,348.7529121459797,5.854363683340081,POINT (699367.3385986726 3940277.811012558),152,8267,Wake,37,NORTH CAROLINA,37183,Wake,37183053107,0.4095,23.70446156027976,348.7529121459797,5.854363683340081
149667,ELEC,BLOC83 TOWER 1 STATION 1,Raleigh,NC,27603,E,35.780115,-78.648556,,1798,Wake,37,NORTH CAROLINA,37183,Wake,37183051000,0.3119,0.9734699408604013,1847.0010470080235,7.52131854706861,POINT (712535.8480638791 3962111.214797041),96,1798,Wake,37,NORTH CAROLINA,37183,Wake,37183051000,0.3119,0.9734699408604013,1847.0010470080235,7.52131854706861
152416,ELEC,NC STATE COLISEUM 01,Raleigh,NC,27606,E,35.782117,-78.667907,,4255,Wake,37,NORTH CAROLINA,37183,Wake,37183051102,0.3693,1.7393098924335413,2446.372563342724,7.802361619996932,POINT (710781.2052150314 3962291.489240916),98,4255,Wake,37,NORTH CAROLINA,37183,Wake,37183051102,0.3693,1.7393098924335413,2446.372563342724,7.802361619996932
153454,ELEC,Parkside Town Commons - Tesla Supercharger,Cary,NC,27519,E,35.84359,-78.886368,,5009,Wake,37,NORTH CAROLINA,37183,Wake,37183053602,0.1698,12.38732286023872,404.36501546900587,6.002317973683575,POINT (690885.8030215383 3968662.804342472),200,5009,Wake,37,NORTH CAROLINA,37183,Wake,37183053602,0.1698,12.38732286023872,404.36501546900587,6.002317973683575
155208,ELEC,McDonald's Store #27548,Cary,NC,27518,E,35.704118,-78.795636,,4603,Wake,37,NORTH CAROLINA,37183,Wake,37183053405,0.0782,8.003155081386344,575.1481700892701,6.354627694713503,POINT (699429.3908488492 3953371.1716682124),164,4603,Wake,37,NORTH CAROLINA,37183,Wake,37183053405,0.0782,8.003155081386344,575.1481700892701,6.354627694713503
158454,ELEC,Orange County - Motor Pool Fueling Station,Hillsborough,NC,27278,E,36.092325,-79.106383,MUNI_GOV,8028,Orange,37,NORTH CAROLINA,37135,Orange,37135011101,0.6215,74.28002486794298,108.07750824360106,4.682848638645256,POINT (670477.6283577972 3995848.6137190354),70,8028,Orange,37,NORTH CAROLINA,37135,Orange,37135011101,0.6215,74.28002486794298,108.07750824360106,4.682848638645256
164031,ELEC,3800 GLENWOOD STATION 1,Raleigh,NC,27612,E,35.831954,-78.66663,,3215,Wake,37,NORTH CAROLINA,37183,Wake,37183051700,0.012,4.909736208500182,654.821331222215,6.484362421664928,POINT (710764.8361169016 3967823.170642792),104,3215,Wake,37,NORTH CAROLINA,37183,Wake,37183051700,0.012,4.909736208500182,654.821331222215,6.484362421664928
180722,ELEC,3800 GLENWOOD STATION 3,Raleigh,NC,27612,E,35.831995,-78.66662,,3215,Wake,37,NORTH CAROLINA,37183,Wake,37183051700,0.012,4.909736208500182,654.821331222215,6.484362421664928,POINT (710765.6310363665 3967827.7407612964),104,3215,Wake,37,NORTH CAROLINA,37183,Wake,37183051700,0.012,4.909736208500182,654.821331222215,6.484362421664928
180723,ELEC,3800 GLENWOOD STATION 2,Raleigh,NC,27612,E,35.83196,-78.666666,,3215,Wake,37,NORTH CAROLINA,37183,Wake,37183051700,0.012,4.909736208500182,654.821331222215,6.484362421664928,POINT (710761.567919392 3967823.7587062893),104,3215,Wake,37,NORTH CAROLINA,37183,Wake,37183051700,0.012,4.909736208500182,654.821331222215,6.484362421664928
180724,ELEC,3800 GLENWOOD STATION 4,Raleigh,NC,27612,E,35.83197,-78.666625,,3215,Wake,37,NORTH CAROLINA,37183,Wake,37183051700,0.012,4.909736208500182,654.821331222215,6.484362421664928,POINT (710765.2454855596 3967824.9564689407),104,3215,Wake,37,NORTH CAROLINA,37183,Wake,37183051700,0.012,4.909736208500182,654.821331222215,6.484362421664928
190916,ELEC,Camden Carolinian,Raleigh,NC,27608,E,35.81717,-78.659529,,3215,Wake,37,NORTH CAROLINA,37183,Wake,37183051700,0.012,4.909736208500182,654.821331222215,6.484362421664928,POINT (711445.5931040428 3966198.3488241616),104,3215,Wake,37,NORTH CAROLINA,37183,Wake,37183051700,0.012,4.909736208500182,654.821331222215,6.484362421664928
206011,ELEC,Sojourn Glenwood Place,Raleigh,NC,27612,E,35.8324264,-78.6649049,,3215,Wake,37,NORTH CAROLINA,37183,Wake,37183051700,0.012,4.909736208500182,654.821331222215,6.484362421664928,POINT (710919.4343980859 3967879.2980695595),104,3215,Wake,37,NORTH CAROLINA,37183,Wake,37183051700,0.012,4.909736208500182,654.821331222215,6.484362421664928
164525,ELEC,MINI OF RALEIGH CUST SERVICE,Raleigh,NC,27616,E,35.86181,-78.579836,,2169,Wake,37,NORTH CAROLINA,37183,Wake,37183054015,0.5002,4.792052027641375,452.624468075229,6.1150627928854,POINT (718524.09067618 3971326.017112351),243,2169,Wake,37,NORTH CAROLINA,37183,Wake,37183054015,0.5002,4.792052027641375,452.624468075229,6.1150627928854
213878,ELEC,THE PIEDMONT BLDG 7,Raleigh,NC,27616,E,35.86823,-78.569286,,2169,Wake,37,NORTH CAROLINA,37183,Wake,37183054015,0.5002,4.792052027641375,452.624468075229,6.1150627928854,POINT (719459.1489988745 3972061.917901101),243,2169,Wake,37,NORTH CAROLINA,37183,Wake,37183054015,0.5002,4.792052027641375,452.624468075229,6.1150627928854
167101,ELEC,UNC Rex Healthcare Parking Deck,Raleigh,NC,27607,E,35.816952,-78.70409,HOSPITAL,5439,Wake,37,NORTH CAROLINA,37183,Wake,37183052504,0.4729,5.921416112502288,918.5302800315401,6.822774870939811,POINT (707419.6869493471 3966078.7756516943),120,5439,Wake,37,NORTH CAROLINA,37183,Wake,37183052504,0.4729,5.921416112502288,918.5302800315401,6.822774870939811
167102,ELEC,UNC Rex Healthcare Heart and Vascular Parking Deck,Raleigh,NC,27607,E,35.81987,-78.702876,HOSPITAL,5439,Wake,37,NORTH CAROLINA,37183,Wake,37183052504,0.4729,5.921416112502288,918.5302800315401,6.822774870939811,POINT (707521.7826459537 3966405.071711291),120,5439,Wake,37,NORTH CAROLINA,37183,Wake,37183052504,0.4729,5.921416112502288,918.5302800315401,6.822774870939811
167103,ELEC,Hilton Raleigh North Hills,Raleigh,NC,27609,E,35.829812,-78.619724,HOTEL,5702,Wake,37,NORTH CAROLINA,37183,Wake,37183052701,0.5627,6.831229427801384,834.696017790633,6.727067608018227,POINT (715008.2327312494 3967687.6349078156),127,5702,Wake,37,NORTH CAROLINA,37183,Wake,37183052701,0.5627,6.831229427801384,834.696017790633,6.727067608018227
167104,ELEC,Hampton Inn & Suites Raleigh Midtown,Raleigh,NC,27609,E,35.822,-78.618794,HOTEL,5702,Wake,37,NORTH CAROLINA,37183,Wake,37183052701,0.5627,6.831229427801384,834.696017790633,6.727067608018227,POINT (715113.349208113 3966823.0024498818),127,5702,Wake,37,NORTH CAROLINA,37183,Wake,37183052701,0.5627,6.831229427801384,834.696017790633,6.727067608018227
167642,ELEC,Aldon at Powell and Broad,Fuquay Varina,NC,27526,E,35.6137397,-78.8117451,,4397,Wake,37,NORTH CAROLINA,37183,Wake,37183053206,0.1499,14.658550948452053,299.9614365336926,5.703653921505907,POINT (698195.1027401983 3943312.480951162),162,4397,Wake,37,NORTH CAROLINA,37183,Wake,37183053206,0.1499,14.658550948452053,299.9614365336926,5.703653921505907
222151,ELEC,Exchange at Holly Springs,Holly Springs,NC,27540,E,35.632,-78.8337,,4397,Wake,37,NORTH CAROLINA,37183,Wake,37183053206,0.1499,14.658550948452053,299.9614365336926,5.703653921505907,POINT (696161.6592266809 3945294.1263953815),162,4397,Wake,37,NORTH CAROLINA,37183,Wake,37183053206,0.1499,14.658550948452053,299.9614365336926,5.703653921505907
183787,ELEC,Town of Apex - Fleet,Apex,NC,27502,E,35.734544,-78.847516,MUNI_GOV,5350,Wake,37,NORTH CAROLINA,37183,Wake,37183053418,0.3286,6.69938700502562,798.5805262461532,6.682835809465981,POINT (694661.0106351135 3956642.254193646),175,5350,Wake,37,NORTH CAROLINA,37183,Wake,37183053418,0.3286,6.69938700502562,798.5805262461532,6.682835809465981
184762,ELEC,FCC Butner,Butner,NC,27509,E,36.137535,-78.813803,FED_GOV,6362,Durham,37,NORTH CAROLINA,37063,Durham,37063002100,0.317,185.31043305317334,34.3315802309656,3.536065637023845,POINT (696708.7028043601 4001417.041532796),56,6362,Durham,37,NORTH CAROLINA,37063,Durham,37063002100,0.317,185.31043305317334,34.3315802309656,3.536065637023845
185335,ELEC,COREV LETC EV 2,Raleigh,NC,27610,T,35.718652,-78.502388,,4388,Wake,37,NORTH CAROLINA,37183,Wake,37183052807,0.5877,42.288080699552985,103.76446335258683,4.642123555202787,POINT (725923.6446775809 3955619.4097224297),136,4388,Wake,37,NORTH CAROLINA,37183,Wake,37183052807,0.5877,42.288080699552985,103.76446335258683,4.642123555202787
185336,ELEC,COREV LETC EV 1,Raleigh,NC,27610,E,35.71863,-78.502525,,4388,Wake,37,NORTH CAROLINA,37183,Wake,37183052807,0.5877,42.288080699552985,103.76446335258683,4.642123555202787,POINT (725911.3118568482 3955616.6533387457),136,4388,Wake,37,NORTH CAROLINA,37183,Wake,37183052807,0.5877,42.288080699552985,103.76446335258683,4.642123555202787
185444,ELEC,Aviation Crossing,Morrisville,NC,27560,E,35.8333258,-78.8127564,,746,Wake,37,NORTH CAROLINA,37183,Wake,37183053609,0.3323,16.491270956223705,45.23605257473889,3.8118943922406734,POINT (697560.2648522349 3967670.322606762),207,746,Wake,37,NORTH CAROLINA,37183,Wake,37183053609,0.3323,16.491270956223705,45.23605257473889,3.8118943922406734
195402,ELEC,CBRE @ Microsoft station location,Morrisville,NC,27560,E,35.8582629,-78.8373174,,746,Wake,37,NORTH CAROLINA,37183,Wake,37183053609,0.3323,16.491270956223705,45.23605257473889,3.8118943922406734,POINT (695280.3052936146 3970387.4325796547),207,746,Wake,37,NORTH CAROLINA,37183,Wake,37183053609,0.3323,16.491270956223705,45.23605257473889,3.8118943922406734
205717,ELEC,Align Technology,Morrisville,NC,27560,E,35.868473,-78.827735,,746,Wake,37,NORTH CAROLINA,37183,Wake,37183053609,0.3323,16.491270956223705,45.23605257473889,3.8118943922406734,POINT (696120.5120374828 3971539.29935514),207,746,Wake,37,NORTH CAROLINA,37183,Wake,37183053609,0.3323,16.491270956223705,45.23605257473889,3.8118943922406734
186169,ELEC,5000 Davis Drive,Research Triangle Park,NC,27709,T,35.8609641,-78.8707416,,2514,Wake,37,NORTH CAROLINA,37183,Wake,37183053608,0.1652,6.2180792225282895,404.3049163625484,6.00216933675718,POINT (692255.2839675703 3970620.8364476226),206,2514,Wake,37,NORTH CAROLINA,37183,Wake,37183053608,0.1652,6.2180792225282895,404.3049163625484,6.00216933675718
187661,ELEC,UNION CHAPEL LEFT CHARGER,Chapel Hill,NC,27514,E,35.920734,-79.053505,,3834,Orange,37,NORTH CAROLINA,37135,Orange,37135011400,0.2379,3.2701739310372675,1172.4147035762994,7.066820750191308,POINT (675618.9793889564 3976907.24516666),77,3834,Orange,37,NORTH CAROLINA,37135,Orange,37135011400,0.2379,3.2701739310372675,1172.4147035762994,7.066820750191308
189382,ELEC,MB RALEIGH GM OFFICE,Raleigh,NC,27616,E,35.864118,-78.582751,,2553,Wake,37,NORTH CAROLINA,37183,Wake,37183054018,0.4877,5.352293535333322,476.9917761696544,6.167499250005241,POINT (718254.5043272607 3971575.559912267),246,2553,Wake,37,NORTH CAROLINA,37183,Wake,37183054018,0.4877,5.352293535333322,476.9917761696544,6.167499250005241
204934,ELEC,MB RALEIGH STATIONABB,Raleigh,NC,27616,E,35.863763,-78.582846,,2553,Wake,37,NORTH CAROLINA,37183,Wake,37183054018,0.4877,5.352293535333322,476.9917761696544,6.167499250005241,POINT (718246.8991434581 3971535.962864398),246,2553,Wake,37,NORTH CAROLINA,37183,Wake,37183054018,0.4877,5.352293535333322,476.9917761696544,6.167499250005241
190217,ELEC,North Carolina Medical Board,Raleigh,NC,27604,E,35.820818,-78.606694,OFFICE_BLDG,3799,Wake,37,NORTH CAROLINA,37183,Wake,37183052705,0.46,4.6349399423522,819.643845929109,6.708869911675071,POINT (716209.8478449732 3966718.5449931123),129,3799,Wake,37,NORTH CAROLINA,37183,Wake,37183052705,0.46,4.6349399423522,819.643845929109,6.708869911675071
